{"0001":{"sno":"0001","sna":"MRT Taipei City Hall Stataion(Exit 3)-2","ar":"The S.W. side of Road Zhongxiao East Road & Road Chung Yan.","sarea":"Xinyi Dist.","tot":"180","sbi":"29","bemp":"149","lat":"25.0408578889","lng":"121.567904444","mday":"20150406195542","sv":"1"},"0002":{"sno":"0002","sna":"MRT S.Y.S Memorial Hall Stataion(Exit 2.)","ar":"Sec,4. Zhongxiao E.Rd/GuangFu S. Rd","sarea":"Daan Dist.","tot":"48","sbi":"5","bemp":"43","lat":"25.041","lng":"121.556945","mday":"20150406195515","sv":"1"},"0003":{"sno":"0003","sna":"Taipei City Hall","ar":"Taipei City Government Eastgate (Song Zhi Road)","sarea":"Xinyi Dist.","tot":"40","sbi":"15","bemp":"25","lat":"25.0377972222","lng":"121.565169444","mday":"20150406195529","sv":"1"},"0004":{"sno":"0004","sna":"Citizen Square","ar":"The N.W. side of Road Shifu & Road Song Shou.","sarea":"Xinyi Dist.","tot":"60","sbi":"30","bemp":"29","lat":"25.0360361111","lng":"121.562325","mday":"20150406195534","sv":"1"},"0005":{"sno":"0005","sna":"Xingya Jr. High School","ar":"","sarea":"Xinyi Dist.","tot":"60","sbi":"12","bemp":"47","lat":"25.0365638889","lng":"121.5686639","mday":"20150406195528","sv":"1"},"0006":{"sno":"0006","sna":"TWTC Exhibition Hall 2","ar":"The N.E. side of Road Song Zhi & Road Song Lian.","sarea":"Xinyi Dist.","tot":"80","sbi":"2","bemp":"77","lat":"25.0347361111","lng":"121.565658333","mday":"20150406195529","sv":"1"},"0007":{"sno":"0007","sna":"Xinyi Square(Taipei 101)","ar":"The N.E. side of Road Song Zhi & Road Xinyi.","sarea":"Xinyi Dist.","tot":"80","sbi":"6","bemp":"71","lat":"25.0330388889","lng":"121.565619444","mday":"20150406195526","sv":"1"},"0008":{"sno":"0008","sna":"TWTC Exhibition Hall 3","ar":"The S.E. side of Road Shifu & Road Song Shou.","sarea":"Xinyi Dist.","tot":"60","sbi":"24","bemp":"36","lat":"25.0352138889","lng":"121.563688889","mday":"20150406195539","sv":"1"},"0009":{"sno":"0009","sna":"Songde","ar":"No.300, Songde Rd.(32)","sarea":"Xinyi Dist.","tot":"40","sbi":"11","bemp":"29","lat":"25.03159","lng":"121.574353","mday":"20150406195523","sv":"1"},"0010":{"sno":"0010","sna":"Emergency Operations Center of Taipei City","ar":"No.2, Aly. 11, Ln. 391, Zhuangjing Rd.","sarea":"Xinyi Dist.","tot":"54","sbi":"41","bemp":"13","lat":"25.0286611111","lng":"121.566116667","mday":"20150406195534","sv":"1"},"0011":{"sno":"0011","sna":"Sanchangli","ar":"The S.E. side of Road Guangfu South & Ln. 346, Sec. 1, Keelung Rd.","sarea":"Xinyi Dist.","tot":"66","sbi":"23","bemp":"42","lat":"25.034937","lng":"121.55762","mday":"20150406195538","sv":"1"},"0012":{"sno":"0012","sna":"Taipei Medical University","ar":"Aly. 59, Ln. 220, Wuxing St.","sarea":"Xinyi Dist.","tot":"34","sbi":"18","bemp":"16","lat":"25.026679","lng":"121.561747","mday":"20150406195542","sv":"1"},"0013":{"sno":"0013","sna":"Fude Park","ar":"The N.W. side of Road Dadao & St. Fude.","sarea":"Xinyi Dist.","tot":"66","sbi":"4","bemp":"62","lat":"25.03809","lng":"121.58367","mday":"20150406195528","sv":"1"},"0014":{"sno":"0014","sna":"Rongxing Park","ar":"The S.W. side of St.Wuchang & Road Longjiang.","sarea":"Zhongshan Dist.","tot":"32","sbi":"1","bemp":"31","lat":"25.06424","lng":"121.54037","mday":"20150406195526","sv":"1"},"0015":{"sno":"0015","sna":"Raohe Night Market","ar":"The S.W. side of Road Bade & Road SongXiny.","sarea":"Songshan Dist.","tot":"60","sbi":"45","bemp":"9","lat":"25.049845","lng":"121.571885","mday":"20150406195533","sv":"1"},"0016":{"sno":"0016","sna":"Songshan Vocational High School","ar":"The S.E. side of St. Linkou & St. Fude.","sarea":"Xinyi Dist.","tot":"48","sbi":"5","bemp":"43","lat":"25.036084","lng":"121.579135","mday":"20150406195538","sv":"1"},"0017":{"sno":"0017","sna":"Minsheng & Guangfu Intersection","ar":"The N.W. side of Road Guangfu S & Road Minsheng E.","sarea":"Songshan Dist.","tot":"34","sbi":"23","bemp":"11","lat":"25.05840","lng":"121.55504","mday":"20150406195524","sv":"1"},"0018":{"sno":"0018","sna":"Taipei Cultural Center","ar":"No.25, Sec. 3, Bade Rd.","sarea":"Songshan Dist.","tot":"38","sbi":"15","bemp":"22","lat":"25.048268","lng":"121.552278","mday":"20150406195357","sv":"1"},"0019":{"sno":"0019","sna":"Zhongqiang Park","ar":"No.17, Ln. 153, Songren Rd","sarea":"Xinyi Dist.","tot":"30","sbi":"0","bemp":"30","lat":"25.02863","lng":"121.56981","mday":"20150406195543","sv":"1"},"0020":{"sno":"0020","sna":"MRT Technology Bldg. Sta.","ar":"No.235, Sec. 2, Fusing S. Rd.","sarea":"Daan Dist.","tot":"56","sbi":"26","bemp":"30","lat":"25.025896","lng":"121.543293","mday":"20150406195536","sv":"1"},"0021":{"sno":"0021","sna":"Minsheng & Dunhua Intersection","ar":"The side of bus stop- Dunhua Minsheng Intersection.","sarea":"Songshan Dist.","tot":"66","sbi":"2","bemp":"64","lat":"25.057985","lng":"121.548982","mday":"20150406195539","sv":"1"},"0022":{"sno":"0022","sna":"Songshan Rail Sta.","ar":"Bicycle parking lot- West exit in Songshan station","sarea":"Songshan Dist.","tot":"44","sbi":"8","bemp":"36","lat":"25.048616","lng":"121.578095","mday":"20150406195543","sv":"1"},"0023":{"sno":"0023","sna":"Dongxin Elementary School","ar":"A side entrance of Dongxin Elementery School(front of No. 62, Dongxin St.)","sarea":"Nangang Dist.","tot":"32","sbi":"3","bemp":"23","lat":"25.055074","lng":"121.602798","mday":"20150406195522","sv":"1"},"0024":{"sno":"0024","sna":"Xinyi & Jianguo Intersection","ar":"The N.S. side of Lianyun St. & Sec. 2, Xinyi Rd.","sarea":"Daan Dist.","tot":"46","sbi":"9","bemp":"37","lat":"25.032981","lng":"121.537328","mday":"20150406195522","sv":"1"},"0025":{"sno":"0025","sna":"Yongji & Songxin Intersection","ar":"The sidewalk- the S.W. side of Songxin Rd. & Yongji Rd.","sarea":"Xinyi Dist.","tot":"30","sbi":"14","bemp":"16","lat":"25.04543","lng":"121.57205","mday":"20150406195522","sv":"1"},"0026":{"sno":"0026","sna":"MRT Kunyang Sta. (Exit 1)","ar":"The side of parking lots in the MRT Kunyang station (exit 1)","sarea":"Nangang Dist.","tot":"42","sbi":"20","bemp":"22","lat":"25.050142","lng":"121.592375","mday":"20150406195528","sv":"1"},"0027":{"sno":"0027","sna":"MRT Nangang Exhibition Center Sta. (Exit 5)","ar":"The N.E side of Academia Rd. & Shihmin Blvd.","sarea":"Nangang Dist.","tot":"26","sbi":"0","bemp":"26","lat":"25.05469","lng":"121.61669","mday":"20150406195531","sv":"1"},"0028":{"sno":"0028","sna":"Wuchang Park","ar":"The S.W side of Songlong Rd. & Hulin St.","sarea":"Xinyi Dist.","tot":"36","sbi":"20","bemp":"16","lat":"25.04814","lng":"121.57467","mday":"20150406195540","sv":"1"},"0029":{"sno":"0029","sna":"Jinshan & Aiguo Intersection","ar":"The S.W side of Aiguo St. & Jinshan Rd.","sarea":"Daan Dist.","tot":"54","sbi":"15","bemp":"39","lat":"25.03164","lng":"121.52655","mday":"20150406195526","sv":"1"},"0030":{"sno":"0030","sna":"Keelung & Changxing Intersection","ar":"The S.W side of Keelung Rd. & Changsing St.","sarea":"Daan Dist.","tot":"74","sbi":"13","bemp":"61","lat":"25.017054","lng":"121.544352","mday":"20150406195350","sv":"1"},"0031":{"sno":"0031","sna":"Xinhai & Xinsheng Intersection","ar":"Under the bridge- Sinhai Rd. & Shinsheng S. Rd.","sarea":"Daan Dist.","tot":"30","sbi":"11","bemp":"19","lat":"25.022413","lng":"121.53456","mday":"20150406195525","sv":"1"},"0032":{"sno":"0032","sna":"MRT Liuzhangli Sta.","ar":"The outside of the MRT exit and the side of Heping E. Rd.","sarea":"Daan Dist.","tot":"30","sbi":"19","bemp":"11","lat":"25.023884","lng":"121.553161","mday":"20150406195529","sv":"1"},"0033":{"sno":"0033","sna":"Zhonglun High School","ar":"The side of Ln. 91, Sec. 4, Bade Rd. ( beside Zhong-Lun High School)","sarea":"Songshan Dist.","tot":"46","sbi":"20","bemp":"26","lat":"25.04878","lng":"121.56087","mday":"20150406195531","sv":"1"},"0034":{"sno":"0034","sna":"MRT Xingtian Temple Sta. (Exit 1)","ar":"The side of Songjiang Rd.(the exit 1 of the MRT station of Xingtian Temple)","sarea":"Zhongshan Dist.","tot":"32","sbi":"2","bemp":"29","lat":"25.058369","lng":"121.532934","mday":"20150406195538","sv":"1"},"0035":{"sno":"0035","sna":"MRT Xingtian Temple Sta. (Exit 3)","ar":"The outside of the MRT station of Xingtian Temple.","sarea":"Zhongshan Dist.","tot":"30","sbi":"8","bemp":"22","lat":"25.059978","lng":"121.533302","mday":"20150406195538","sv":"1"},"0036":{"sno":"0036","sna":"NTU Information Bldg.","ar":"Sec. 2, Xinghai Rd. (the outside ofLanguage Center of National Taiwan University)","sarea":"Daan Dist.","tot":"72","sbi":"18","bemp":"54","lat":"25.02101","lng":"121.54153","mday":"20150406195543","sv":"1"},"0037":{"sno":"0037","sna":"MRT Dongmen Sta. (Exit 4)","ar":"Ren’ai Rd. & Lishuei St.","sarea":"Daan Dist.","tot":"46","sbi":"12","bemp":"34","lat":"25.033700","lng":"121.529166","mday":"20150406195536","sv":"1"},"0038":{"sno":"0038","sna":"NTNU Library","ar":"The N. side of Heping E. Rd. & Shihda Rd.","sarea":"Daan Dist.","tot":"34","sbi":"27","bemp":"6","lat":"25.02665","lng":"121.52889","mday":"20150406195523","sv":"1"},"0039":{"sno":"0039","sna":"Nangang Park","ar":"The N.E. side of Sanchong Rd. & Ln. 88, Jingmao 2nd Rd.","sarea":"Nangang Dist.","tot":"26","sbi":"3","bemp":"22","lat":"25.058","lng":"121.61422","mday":"20150406195544","sv":"1"},"0040":{"sno":"0040","sna":"Yucheng Park","ar":"The front of No. 247, Yucheng St.","sarea":"Nangang Dist.","tot":"34","sbi":"4","bemp":"29","lat":"25.04287","lng":"121.58640","mday":"20150406195518","sv":"1"},"0041":{"sno":"0041","sna":"Academia Park","ar":"The S.W side of Ln. 12, Sec. 2, Academia Rd. & Aly. 58, Ln. 12, Sec. 2, Academia Rd.","sarea":"Nangang Dist.","tot":"30","sbi":"11","bemp":"18","lat":"25.047425","lng":"121.613706","mday":"20150406195541","sv":"1"},"0042":{"sno":"0042","sna":"MRT Houshanpi Sta.(Exit 1)","ar":"The S.W side of Jhongsiao E. Rd. & Jhongpo N. Rd.","sarea":"Nangang Dist.","tot":"38","sbi":"7","bemp":"31","lat":"25.04431","lng":"121.58174","mday":"20150406195525","sv":"1"},"0043":{"sno":"0043","sna":"Linyun Market","ar":"The N.E. side of St. Lingyun & Academia Rd.","sarea":"Nangang Dist.","tot":"36","sbi":"23","bemp":"13","lat":"25.035639","lng":"121.614154","mday":"20150406195519","sv":"1"},"0044":{"sno":"0044","sna":"MRT Nangang Software Park Sta.(Exit 2)","ar":"The outside of the MRT station exit 2 of Taipei Nangang Exhibition Center","sarea":"Nangang Dist.","tot":"36","sbi":"7","bemp":"29","lat":"25.05973","lng":"121.616187","mday":"20150406195543","sv":"1"},"0045":{"sno":"0045","sna":"MRT Gongguan Sta.(Exit 2)","ar":"The N.W. side of Roosevelt Rd.& Sinhai Rd.","sarea":"Daan Dist.","tot":"30","sbi":"8","bemp":"22","lat":"25.01476","lng":"121.534538","mday":"20150406195541","sv":"1"},"0046":{"sno":"0046","sna":"Nangang Elementary School","ar":"The opposite of parking lots of exit Singdong St. (Nan-Gang Elementary School)","sarea":"Nangang Dist.","tot":"44","sbi":"2","bemp":"42","lat":"25.05646","lng":"121.611027","mday":"20150406195515","sv":"1"},"0047":{"sno":"0047","sna":"MRT Zhongxiao Xinsheng Sta.(Exit 3)","ar":"The intersection of Sec. 3, Zhongxiao E. Rd. & Ln. 10, Sec. 3, Zhongxiao E. Rd.","sarea":"Daan Dist.","tot":"40","sbi":"1","bemp":"39","lat":"25.041924","lng":"121.533862","mday":"20150406195527","sv":"1"},"0048":{"sno":"0048","sna":"Nangang Rail Sta.","ar":"The intersection of Sec. 7, Zhongxiao E. Rd. & Ln. 415, Sec. 7, Zhongxiao E. Rd","sarea":"Nangang Dist.","tot":"38","sbi":"14","bemp":"24","lat":"25.05247","lng":"121.608202","mday":"20150406195541","sv":"1"},"0049":{"sno":"0049","sna":"Longmen Square","ar":"Sec. 1, Dunhua S. Rd. & Ln. 236, Sec. 1, Dunhua S. Rd.","sarea":"Daan Dist.","tot":"52","sbi":"5","bemp":"45","lat":"25.040901","lng":"121.548252","mday":"20150406195531","sv":"1"},"0050":{"sno":"0050","sna":"MinQuan Park","ar":"The intersection of Sec. 4, Mincyuan E. Rd. & Xinzhong St.","sarea":"Songshan Dist.","tot":"52","sbi":"4","bemp":"48","lat":"25.062002","lng":"121.560186","mday":"20150406195332","sv":"1"},"0051":{"sno":"0051","sna":"Jianguo & Nongan Intersection","ar":"(Behind empty area of CPC coporation) Jianguo N. Rd. & Nong’an St.","sarea":"Zhongshan Dist.","tot":"44","sbi":"14","bemp":"30","lat":"25.065031","lng":"121.536775","mday":"20150406195526","sv":"1"},"0052":{"sno":"0052","sna":"Jianguo & Changchun Intersection","ar":"The N. side of Jianguo N. Rd. & Changchun Rd.","sarea":"Zhongshan Dist.","tot":"30","sbi":"7","bemp":"21","lat":"25.054761","lng":"121.536925","mday":"20150406195522","sv":"1"},"0053":{"sno":"0053","sna":"Bade Market","ar":"The intersection of Sec.1, Jianguo S. Rd. & Civic Blvd.","sarea":"Zhongshan Dist.","tot":"26","sbi":"1","bemp":"25","lat":"25.044781","lng":"121.536609","mday":"20150406195543","sv":"1"},"0054":{"sno":"0054","sna":"Taipei Public Library","ar":"The N.E. side of Sec. 2, Jianguo S. Rd. & Ln. 151, Sec. 2, Jianguo S. Rd.","sarea":"Daan Dist.","tot":"30","sbi":"12","bemp":"18","lat":"25.028798","lng":"121.538073","mday":"20150406195540","sv":"1"},"0055":{"sno":"0055","sna":"Taipei Stadium","ar":"No.3, Dunhua N. Rd.","sarea":"Songshan Dist.","tot":"46","sbi":"11","bemp":"35","lat":"25.049505","lng":"121.549408","mday":"20150406195516","sv":"1"},"0056":{"sno":"0056","sna":"Renai & Linsen Intersection","ar":"The N.E. side of Linsen S. Rd & Sec. 1, Ren’ai Rd.(42)","sarea":"Zhongzheng Dist.","tot":"42","sbi":"4","bemp":"38","lat":"25.038954","lng":"121.522334","mday":"20150406195524","sv":"1"},"0057":{"sno":"0057","sna":"Xinsheng & Heping Intersection","ar":"The N.E. side of Sec. 2, Xinsheng S. Rd. & Sec. 2, Heping E. Rd","sarea":"Daan Dist.","tot":"46","sbi":"0","bemp":"45","lat":"25.026217","lng":"121.53519","mday":"20150406195532","sv":"1"},"0058":{"sno":"0058","sna":"MRT Shandao Temple Sta(Exit 1)","ar":"The N.E. side of Tianjin St. & Sec. 1, Zhongxiao E. Rd.","sarea":"Zhongzheng Dist.","tot":"48","sbi":"20","bemp":"27","lat":"25.045267","lng":"121.522200","mday":"20150406195525","sv":"1"},"0059":{"sno":"0059","sna":"Linsen Park","ar":"Linsen N. Rd. & Sec. 1, Nanjing E. Rd.","sarea":"Zhongshan Dist.","tot":"32","sbi":"14","bemp":"18","lat":"25.052227","lng":"121.525805","mday":"20150406195540","sv":"1"},"0060":{"sno":"0060","sna":"Zhongshan Dist. Admin. Office","ar":"Songjiang Rd. & Nong’an St.","sarea":"Zhongshan Dist.","tot":"30","sbi":"8","bemp":"22","lat":"25.064317","lng":"121.533487","mday":"20150406195542","sv":"1"},"0061":{"sno":"0061","sna":"N.T.U.S.T","ar":"The intersection of Sec. 4, Keelung Rd. & Ln. 73, Sec. 4, Keelung Rd","sarea":"Daan Dist.","tot":"46","sbi":"9","bemp":"36","lat":"25.0131","lng":"121.539723","mday":"20150406195522","sv":"1"},"0062":{"sno":"0062","sna":"Nanchang Park","ar":"Sec. 1, Heping W. Rd.& Nanchang Rd.","sarea":"Zhongzheng Dist.","tot":"34","sbi":"13","bemp":"20","lat":"25.026827","lng":"121.520258","mday":"20150406195540","sv":"1"},"0063":{"sno":"0063","sna":"Taipei City Hospital Renai Branch","ar":"Da’an Rd. & Sec. 4, Sinyi Rd.","sarea":"Daan Dist.","tot":"36","sbi":"12","bemp":"22","lat":"25.037569","lng":"121.545632","mday":"20150406195525","sv":"1"},"0064":{"sno":"0064","sna":"National Central Library","ar":"The S.W. side of Zhongshan S. Rd. & Guiyang St.","sarea":"Zhongzheng Dist.","tot":"50","sbi":"3","bemp":"46","lat":"25.037773","lng":"121.517029","mday":"20150406195528","sv":"1"},"0065":{"sno":"0065","sna":"Youth Park Exit 3","ar":"The E. side of Qingnian Rd. & Ln. 106, Qingnian Rd.","sarea":"Wanhua Dist.","tot":"38","sbi":"6","bemp":"31","lat":"25.022725","lng":"121.502708","mday":"20150406195518","sv":"1"},"0066":{"sno":"0066","sna":"NTNU Gongguan Campus","ar":"The side of Tingzhou Rd. (National Taiwan Normal University- Gongguan Campus)","sarea":"Wenshan Dist.","tot":"42","sbi":"7","bemp":"35","lat":"25.007528","lng":"121.537188","mday":"20150406195540","sv":"1"},"0067":{"sno":"0067","sna":"MRT Nat’l Taiwan U. Hospital Sta.(Exit 4)","ar":"The S.W. side of Gongyuan Rd. & Siangyang Rd.","sarea":"Zhongzheng Dist.","tot":"48","sbi":"10","bemp":"37","lat":"25.042973","lng":"121.516428","mday":"20150406195517","sv":"1"},"0068":{"sno":"0068","sna":"Guoxing & Qingnian Intersection","ar":"The S.W. side of Guoxing Rd. & Qingnian Rd.","sarea":"Wanhua Dist.","tot":"36","sbi":"16","bemp":"18","lat":"25.025865","lng":"121.506536","mday":"20150406195543","sv":"1"},"0069":{"sno":"0069","sna":"Xingfong Park","ar":"The N.W. side of Ln. 123, Sec. 2, Xinglong Rd. & Sec. 2, Xinglong Rd.","sarea":"Wenshan Dist.","tot":"34","sbi":"9","bemp":"24","lat":"24.999837","lng":"121.547778","mday":"20150406195523","sv":"1"},"0070":{"sno":"0070","sna":"MRT Taipei 101/World Trade Center Sta.","ar":"The S.E. side of Zhuangjing Rd. & Sec. 5, Xinyi Rd.","sarea":"Xinyi Dist.","tot":"52","sbi":"6","bemp":"46","lat":"25.032752","lng":"121.561645","mday":"20150406195332","sv":"1"},"0071":{"sno":"0071","sna":"MRT Xinyi Anhe Sta.","ar":"The S.W. side of Tonghua St. & Sec. 4, Xinyi Road., Daan Dist.","sarea":"Daan Dist.","tot":"30","sbi":"1","bemp":"29","lat":"25.032985","lng":"121.554204","mday":"20150406195540","sv":"1"},"0072":{"sno":"0072","sna":"Xinsheng & Changan Intersection","ar":"The intersection of Sec. 1, Xinsheng N. Rd. & Sec. 2, Chang’an E. Rd.","sarea":"Zhongshan Dist.","tot":"42","sbi":"21","bemp":"21","lat":"25.048611","lng":"121.529346","mday":"20150406195523","sv":"1"},"0073":{"sno":"0073","sna":"Jiuquan & Yanping Intersection","ar":"The N.W. side of Sec. 4, Yanping N. Rd. & Jiuquan St.","sarea":"Datong Dist.","tot":"32","sbi":"5","bemp":"27","lat":"25.072228","lng":"121.510195","mday":"20150406195519","sv":"1"},"0074":{"sno":"0074","sna":"Xinyi & Lianyun Intersection","ar":"The N.S. side of Lianyun St. & Sec. 2, Xinyi Rd.","sarea":"Zhongzheng Dist.","tot":"40","sbi":"19","bemp":"18","lat":"25.033817","lng":"121.530547","mday":"20150406195537","sv":"1"},"0075":{"sno":"0075","sna":"Keelung & Guangfu Intersection","ar":"The intersection of Sec. 2, Keelung Rd. & Guangfu S. Rd.","sarea":"Xinyi Dist.","tot":"30","sbi":"7","bemp":"23","lat":"25.030055","lng":"121.557841","mday":"20150406195538","sv":"1"},"0076":{"sno":"0076","sna":"Xinsheng & Changchun Intersection","ar":"Under the bridge- the intersection of Sec. 2, Xinsheng N. Rd. & Ln. 68, Sec. 2, Xinsheng N. Rd.","sarea":"Zhongshan Dist.","tot":"36","sbi":"9","bemp":"27","lat":"25.056387","lng":"121.527522","mday":"20150406195532","sv":"1"},"0077":{"sno":"0077","sna":"Minsheng Activity Center","ar":"The N.W. side of Sec. 5, Minsheng E. Rd. & Sanmin Rd.","sarea":"Songshan Dist.","tot":"32","sbi":"7","bemp":"25","lat":"25.059147","lng":"121.56297","mday":"20150406195522","sv":"1"},"0078":{"sno":"0078","sna":"MRT Yuanshan Sta. (Exit 2)","ar":"The S.E. side of Sec. 3, Chengde Rd. & Kulun St.","sarea":"Datong Dist.","tot":"52","sbi":"22","bemp":"29","lat":"25.071824","lng":"121.519287","mday":"20150406195540","sv":"1"},"0079":{"sno":"0079","sna":"MRT Minquan W.Rd. Sta.(Exit 3)","ar":"The opposite of No.37, Ln. 70, Minquan W. Rd.","sarea":"Datong Dist.","tot":"50","sbi":"10","bemp":"39","lat":"25.061285","lng":"121.520205","mday":"20150406195517","sv":"1"},"0080":{"sno":"0080","sna":"Huajiang High School","ar":"The N.E. side of Dongyuan St. & Ln. 35, Dongyuan St.","sarea":"Wanhua Dist.","tot":"44","sbi":"26","bemp":"18","lat":"25.02751","lng":"121.495869","mday":"20150406195525","sv":"1"},"0081":{"sno":"0081","sna":"MRT Taipower Building Sta. (Exit 2)","ar":"The intersection of Roosevelt Rd. & Xinhai Rd. (Gu Ting Elementary School)","sarea":"Daan Dist.","tot":"40","sbi":"22","bemp":"18","lat":"25.020547","lng":"121.528552","mday":"20150406195521","sv":"1"},"0082":{"sno":"0082","sna":"MRT Ximen Sta.(Exit 3)","ar":"The S.E. side of Sec. 1, Zhonghua Rd. & Baoqing Rd.","sarea":"Zhongzheng Dist.","tot":"60","sbi":"5","bemp":"55","lat":"25.041778","lng":"121.508693","mday":"20150406195530","sv":"1"},"0083":{"sno":"0083","sna":"MRT Daan Park Sta.","ar":"The S. side of Ln. 31, Sec. 3, Xinyi Rd. & Sec. 3, Xinyi Rd.","sarea":"Daan Dist.","tot":"74","sbi":"7","bemp":"63","lat":"25.033156","lng":"121.535161","mday":"20150406195522","sv":"1"},"0084":{"sno":"0084","sna":"Fuhua Garden New Village(City)","ar":"The S.E. side of No.115, Xizang Rd. & Xizang Rd.","sarea":"Wanhua Dist.","tot":"38","sbi":"18","bemp":"20","lat":"25.029705","lng":"121.502899","mday":"20150406195530","sv":"1"},"0085":{"sno":"0085","sna":"Xinyi & Dunhua Intersection","ar":"The N.E. side of Sec. 4, Xinyi Rd. & Sec. 1, Dunhua S. Rd.","sarea":"Daan Dist.","tot":"46","sbi":"17","bemp":"28","lat":"25.033362","lng":"121.54911","mday":"20150406195518","sv":"1"},"0086":{"sno":"0086","sna":"Minquan & Fuxing Intersection","ar":"The N.E. side of Fuxing N. Rd. & Sec. 3, Minquan E. Rd.","sarea":"Songshan Dist.","tot":"46","sbi":"15","bemp":"31","lat":"25.062344","lng":"121.545138","mday":"20150406195527","sv":"1"},"0087":{"sno":"0087","sna":"MRT Daan Sta.","ar":"The S.W. side of Fuxing S. Rd. & Sec. 3 Xinyi Rd.","sarea":"Daan Dist.","tot":"58","sbi":"7","bemp":"51","lat":"25.033078","lng":"121.543057","mday":"20150406195526","sv":"1"},"0088":{"sno":"0088","sna":"MRT Xiangshan Sta.","ar":"The N.W. side of Sec. 5, Xinyi Rd. & Ln. 91, Sec. 5, Xinyi Rd.","sarea":"Xinyi Dist.","tot":"58","sbi":"5","bemp":"53","lat":"25.032835","lng":"121.571274","mday":"20150406195538","sv":"1"},"0089":{"sno":"0089","sna":"Heping Chongqing Intersection","ar":"The N.E. side of Sec. 3, Chongqing S. Rd. & Sec. 1, Heping W. Rd.","sarea":"Zhongzheng Dist.","tot":"44","sbi":"19","bemp":"25","lat":"25.027323","lng":"121.516385","mday":"20150406195544","sv":"1"},"0090":{"sno":"0090","sna":"Laosong Elementary School","ar":"The S.E. side of Kangding Rd. & Guilin Rd.","sarea":"Wanhua Dist.","tot":"44","sbi":"10","bemp":"34","lat":"25.037783","lng":"121.501708","mday":"20150406195517","sv":"1"},"0091":{"sno":"0091","sna":"Taipei Fine Arts Museum","ar":"The S.W. side of Sec. 3, Zhongshan N. Rd. & Jiuquan St.","sarea":"Zhongshan Dist.","tot":"36","sbi":"18","bemp":"18","lat":"25.070629","lng":"121.523268","mday":"20150406195520","sv":"1"},"0092":{"sno":"0092","sna":"Kaifong & Xining Intersection","ar":"The N.E. side of Sec. 2, Kaifeng St. & Xining S. Rd.","sarea":"Wanhua Dist.","tot":"42","sbi":"12","bemp":"30","lat":"25.046618","lng":"121.507169","mday":"20150406195543","sv":"1"},"0093":{"sno":"0093","sna":"Wu Xing Bus Station.","ar":"The intersection of Songren Rd. & Wuxing St.","sarea":"Xinyi Dist.","tot":"56","sbi":"2","bemp":"54","lat":"25.023877","lng":"121.569836","mday":"20150406195339","sv":"1"},"0094":{"sno":"0094","sna":"MRT Jingmei Sta.","ar":"The intersectionof Sec. 6, Roosevelt Rd. & Jingzhong St.","sarea":"Wenshan Dist.","tot":"52","sbi":"23","bemp":"29","lat":"24.993254","lng":"121.541059","mday":"20150406195525","sv":"1"},"0095":{"sno":"0095","sna":"Dongyuan Elementary School","ar":"The S.E. side of Dongyuan St. & Ln. 344, Wanda Rd.","sarea":"Wanhua Dist.","tot":"32","sbi":"11","bemp":"21","lat":"25.023393","lng":"121.497679","mday":"20150406195517","sv":"1"},"0096":{"sno":"0096","sna":"Sanmin Park","ar":"The S.E. side of Fuyuan St. & Fujin St.","sarea":"Songshan Dist.","tot":"30","sbi":"12","bemp":"18","lat":"25.061567","lng":"121.566558","mday":"20150406195520","sv":"1"},"0097":{"sno":"0097","sna":"MRT Jiantan Sta.(Exit 2)","ar":"The opposite of No.18, Jihe Rd.","sarea":"Shilin Dist.","tot":"52","sbi":"37","bemp":"15","lat":"25.082825","lng":"121.524721","mday":"20150406195359","sv":"1"},"0098":{"sno":"0098","sna":"Roosevelt & Jinglong Intersection","ar":"The intersection of Sec. 6, Roosevelt Rd. & Jinglong St. (the S.E. side)","sarea":"Wenshan Dist.","tot":"48","sbi":"1","bemp":"47","lat":"24.999378","lng":"121.540197","mday":"20150406195521","sv":"1"},"0099":{"sno":"0099","sna":"MRT Shuanglian Sta. (Exit 2)","ar":"The N.E. side of Minsheng W. Rd. & Wanquan St.","sarea":"Datong Dist.","tot":"42","sbi":"13","bemp":"27","lat":"25.057866","lng":"121.520711","mday":"20150406195531","sv":"1"},"0100":{"sno":"0100","sna":"Jinshen & Civic Blvd. Intersection","ar":"The S. side of Jinshan N. Rd. & Sec. 3, Civic Blvd.","sarea":"Zhongzheng Dist.","tot":"40","sbi":"18","bemp":"22","lat":"25.045753","lng":"121.530697","mday":"20150406195531","sv":"1"},"0101":{"sno":"0101","sna":"Huashan 1914‧Creative Park","ar":"Front of No.41, Sec. 2, Zhongxiao E. Rd.","sarea":"Zhongzheng Dist.","tot":"50","sbi":"2","bemp":"48","lat":"25.043668","lng":"121.528487","mday":"20150406195538","sv":"1"},"0102":{"sno":"0102","sna":"Taipei City Hakka Cultural Park","ar":"The intersection of Shida Rd. & Tingzhou Rd.","sarea":"Zhongzheng Dist.","tot":"32","sbi":"10","bemp":"22","lat":"25.02043","lng":"121.525322","mday":"20150406195539","sv":"1"},"0103":{"sno":"0103","sna":"Wanda & Xingning Intersection","ar":"The S.W. side of Wanda Rd. & Xingning St.","sarea":"Wanhua Dist.","tot":"52","sbi":"3","bemp":"49","lat":"25.031974","lng":"121.500474","mday":"20150406195336","sv":"1"},"0104":{"sno":"0104","sna":"Taipei Pot Plant Auction","ar":"The N.W. side of Wansheng St. Sec. 1, Xinglong Rd.","sarea":"Wenshan Dist.","tot":"38","sbi":"16","bemp":"22","lat":"25.004023","lng":"121.54074","mday":"20150406195521","sv":"1"},"0105":{"sno":"0105","sna":"Emei Parking Lot","ar":"The S.E. side of Kunming St. & Ln. 50, Xining S. Rd.","sarea":"Wanhua Dist.","tot":"42","sbi":"5","bemp":"37","lat":"25.044412","lng":"121.505409","mday":"20150406195516","sv":"1"},"0106":{"sno":"0106","sna":"Xiyuan & Bangka Intersection","ar":"The S.W. side of Sec. 2, Xiyuan Rd. & Bangka Blvd.","sarea":"Wanhua Dist.","tot":"44","sbi":"29","bemp":"15","lat":"25.032932","lng":"121.497674","mday":"20150406195527","sv":"1"},"0107":{"sno":"0107","sna":"MRT Xiaonanmen Sta. (Exit 1)","ar":"The intersection of Bo’ai Rd. & Aiguo W. Rd.","sarea":"Zhongzheng Dist.","tot":"54","sbi":"1","bemp":"53","lat":"25.036402","lng":"121.509422","mday":"20150406195539","sv":"1"},"0108":{"sno":"0108","sna":"Taipei Confucius Temple","ar":"The N.E. side of Ln. 59, Hami St. & Hami St.","sarea":"Datong Dist.","tot":"32","sbi":"9","bemp":"23","lat":"25.073306","lng":"121.515843","mday":"20150406195537","sv":"1"},"0109":{"sno":"0109","sna":"Lin An-tai Historical House","ar":"The N. side of Jilin Rd. & Minzu E. Rd.","sarea":"Zhongshan Dist.","tot":"36","sbi":"25","bemp":"11","lat":"25.071606","lng":"121.530805","mday":"20150406195524","sv":"1"},"0110":{"sno":"0110","sna":"Wenhu Elementary School","ar":"The N.E. side of Ln. 21, Wenhu St. & Wenhu St.","sarea":"Neihu Dist.","tot":"44","sbi":"14","bemp":"30","lat":"25.086376","lng":"121.560888","mday":"20150406195349","sv":"1"},"0111":{"sno":"0111","sna":"MRT Zhongxiao Fuxing Sta.(Exit 2)","ar":"The N.W. side of Sec. 1, Fuxing S. Rd. & Aly. 13, Ln. 123, Sec. 3, Ren’ai Rd.","sarea":"Daan Dist.","tot":"54","sbi":"7","bemp":"46","lat":"25.040184","lng":"121.543497","mday":"20150406195539","sv":"1"},"0112":{"sno":"0112","sna":"MRT Xinbeitou Sta.","ar":"Daye Rd. & Zhonghe St.  Intersection","sarea":"Beitou Dist.","tot":"48","sbi":"14","bemp":"34","lat":"25.137456","lng":"121.503124","mday":"20150406195515","sv":"1"},"0113":{"sno":"0113","sna":"Renai & Yixian Intersection","ar":"Sec. 4, Ren’ai Rd. & Yixian Rd.","sarea":"Xinyi Dist.","tot":"38","sbi":"5","bemp":"32","lat":"25.037724","lng":"121.561178","mday":"20150406195522","sv":"1"},"0114":{"sno":"0114","sna":"Lanya Park","ar":"Sec. 2, Zhongcheng Rd. & Ln. 40, Sec. 2, Zhongcheng Rd.","sarea":"Shilin Dist.","tot":"30","sbi":"28","bemp":"1","lat":"25.109908","lng":"121.530386","mday":"20150406195522","sv":"1"},"0115":{"sno":"0115","sna":"Taipei Bus Sta.","ar":"Sec. 1, Zhongshan N. Rd. & Sec. 1, Civic Blvd.","sarea":"Zhongzheng Dist.","tot":"68","sbi":"14","bemp":"54","lat":"25.048222","lng":"121.520526","mday":"20150406195527","sv":"1"},"0116":{"sno":"0116","sna":"Fulin Park","ar":"Zhicheng St. & Zhongzheng Rd.","sarea":"Shilin Dist.","tot":"44","sbi":"14","bemp":"30","lat":"25.096122","lng":"121.530215","mday":"20150406195540","sv":"1"},"0117":{"sno":"0117","sna":"MRT Beitou Sta.","ar":"Ln. 2, Guangming Rd. & Guangming Rd.  Intersection","sarea":"Beitou Dist.","tot":"58","sbi":"3","bemp":"52","lat":"25.132581","lng":"121.498618","mday":"20150406195537","sv":"1"},"0118":{"sno":"0118","sna":"Daye & Datong Intersection","ar":"Daye Rd. & Datong St.  Intersection","sarea":"Beitou Dist.","tot":"36","sbi":"18","bemp":"18","lat":"25.136929","lng":"121.499152","mday":"20150406195521","sv":"1"},"0119":{"sno":"0119","sna":"MRT Jiannan Rd. Sta.(Exit 2)","ar":"Jingye 2nd Rd. & Zhifu Rd.","sarea":"Zhongshan Dist.","tot":"56","sbi":"10","bemp":"45","lat":"25.08418","lng":"121.555116","mday":"20150406195526","sv":"1"},"0120":{"sno":"0120","sna":"MRT Longshan Temple Sta. (Exit. 1)","ar":"Sec. 3, Heping W. Rd. & Ln. 109, Sec. 3, Heping W. Rd.","sarea":"Wanhua Dist.","tot":"46","sbi":"10","bemp":"36","lat":"25.035479","lng":"121.50026","mday":"20150406195529","sv":"1"},"0121":{"sno":"0121","sna":"Longjiang & Nanjing Intersection","ar":"No.100, Longjiang Rd.","sarea":"Zhongshan Dist.","tot":"66","sbi":"41","bemp":"25","lat":"25.05298","lng":"121.540568","mday":"20150406195524","sv":"1"},"0122":{"sno":"0122","sna":"MRT Gangqian Sta. (Exit 2)","ar":"","sarea":"Neihu Dist.","tot":"50","sbi":"25","bemp":"24","lat":"25.079681","lng":"121.575458","mday":"20150406195518","sv":"1"},"0123":{"sno":"0123","sna":"Tienmu Sports Park","ar":"Sec.2,Zhongcheng Rd./Ln.207,Sec.2,Zhongcheng Rd.","sarea":"Shilin Dist.","tot":"44","sbi":"24","bemp":"19","lat":"25.116325","lng":"121.534136","mday":"20150406195524","sv":"1"},"0124":{"sno":"0124","sna":"Zenhua Park","ar":"No.36, Zhenhua St.","sarea":"Beitou Dist.","tot":"36","sbi":"25","bemp":"11","lat":"25.115863","lng":"121.518163","mday":"20150406195527","sv":"1"},"0125":{"sno":"0125","sna":"Huaxi Park","ar":"Huaxi St. & Guilin Rd.","sarea":"Wanhua Dist.","tot":"30","sbi":"1","bemp":"29","lat":"25.038609","lng":"121.498495","mday":"20150406195534","sv":"1"},"0126":{"sno":"0126","sna":"Dunhua & Keelung Intersection","ar":"Sec. 2, Dunhua S. Rd. & Sec. 2, Keelung Rd.","sarea":"Daan Dist.","tot":"30","sbi":"6","bemp":"24","lat":"25.022073","lng":"121.548336","mday":"20150406195516","sv":"1"},"0127":{"sno":"0127","sna":"Donghu Junior High School","ar":"Kangle St./Ln. 125, Kangle St.","sarea":"Neihu Dist.","tot":"40","sbi":"10","bemp":"30","lat":"25.073277","lng":"121.619521","mday":"20150406195352","sv":"1"},"0128":{"sno":"0128","sna":"Chengong Public Housing","ar":"Ln. 198, Siwei Rd./Ln. 1, Sec. 3, Heping E. Rd","sarea":"Daan Dist.","tot":"36","sbi":"7","bemp":"29","lat":"25.026808","lng":"121.546726","mday":"20150406195520","sv":"1"},"0129":{"sno":"0129","sna":"MRT Wende Sta. (Exit 2)","ar":"Ln. 220, Wende Rd./Wende Rd.","sarea":"Neihu Dist.","tot":"50","sbi":"10","bemp":"40","lat":"25.078292","lng":"121.585264","mday":"20150406195533","sv":"1"},"0130":{"sno":"0130","sna":"Roosevelt & Ningbo E. St. Intersection","ar":"Sec. 1, Roosevelt Rd. & Ningbo E. St.","sarea":"Zhongzheng Dist.","tot":"26","sbi":"0","bemp":"25","lat":"25.031445","lng":"121.519411","mday":"20150406195527","sv":"1"},"0131":{"sno":"0131","sna":"Zhouzhi Park No.2","ar":"Opposite to the parking space No.500, Ruiguang Rd.","sarea":"Neihu Dist.","tot":"34","sbi":"5","bemp":"29","lat":"25.079322","lng":"121.568688","mday":"20150406195544","sv":"1"},"0132":{"sno":"0132","sna":"Roosevelt & Xinsheng S. Intersection","ar":"Sec. 4, Roosevelt Rd./Sec. 3, Xinsheng S. Rd.","sarea":"Daan Dist.","tot":"88","sbi":"55","bemp":"32","lat":"25.01603085","lng":"121.5331757","mday":"20150406195537","sv":"1"},"0133":{"sno":"0133","sna":"Lanxing Park","ar":"Sec.6, Zhongshan N. Rd / Shidong Rd","sarea":"Shilin Dist.","tot":"40","sbi":"4","bemp":"36","lat":"25.111839","lng":"121.525888","mday":"20150406195517","sv":"1"},"0134":{"sno":"0134","sna":"MRT Zhishan Sta.(Exit 2)","ar":"Fuhua Rd. / Ln. 162, Fuhua Rd.","sarea":"Shilin Dist.","tot":"64","sbi":"0","bemp":"64","lat":"25.10336","lng":"121.522629","mday":"20150406173649","sv":"1"},"0135":{"sno":"0135","sna":"MRT Shipai Sta. (Exit 2)","ar":"Sec. 1, Donghua St. / Yumin 2nd Rd.","sarea":"Beitou Dist.","tot":"54","sbi":"20","bemp":"33","lat":"25.114513","lng":"121.515677","mday":"20150406195528","sv":"1"},"0136":{"sno":"0136","sna":"NTUNHS","ar":"Ln. 130, Sec. 2, Shipai Rd. / Sec. 2, Shipai Rd.","sarea":"Beitou Dist.","tot":"30","sbi":"18","bemp":"12","lat":"25.118049","lng":"121.517512","mday":"20150406195525","sv":"1"},"0137":{"sno":"0137","sna":"Nat’l Defense U.","ar":"Sec. 2, Zhongyang N. Rd. / Sec. 2, Fengnian Rd.","sarea":"Beitou Dist.","tot":"46","sbi":"1","bemp":"44","lat":"25.137976","lng":"121.493066","mday":"20150406195533","sv":"1"},"0138":{"sno":"0138","sna":"MRT Yongchun Sta. (Exit 2)","ar":"No.420, Sec. 5, Zhongxiao E. Rd.","sarea":"Xinyi Dist.","tot":"30","sbi":"10","bemp":"20","lat":"25.040558","lng":"121.575372","mday":"20150406195532","sv":"1"},"0139":{"sno":"0139","sna":"Yongle Market","ar":"Minle St., Datong Dist./Ln. 233, Nanjing W. Rd.","sarea":"Datong Dist.","tot":"30","sbi":"23","bemp":"7","lat":"25.054501","lng":"121.510549","mday":"20150406195544","sv":"1"},"0140":{"sno":"0140","sna":"MRT Daqiaotou Sta. (Exit 2)","ar":"Minquan W. Rd./ Sec. 3, Chongqing N. Rd.","sarea":"Datong Dist.","tot":"46","sbi":"9","bemp":"37","lat":"25.063404","lng":"121.512909","mday":"20150406195520","sv":"1"},"0141":{"sno":"0141","sna":"Wenshan Dist. Admin. Center","ar":"No.220, Sec. 3, Muzha Rd.","sarea":"Wenshan Dist.","tot":"36","sbi":"13","bemp":"21","lat":"24.989902","lng":"121.569984","mday":"20150406195536","sv":"1"},"0142":{"sno":"0142","sna":"MRT Muzha Sta.","ar":"No.18, Ln. 82, Sec. 4, Muzha Rd.","sarea":"Wenshan Dist.","tot":"52","sbi":"5","bemp":"46","lat":"24.997747","lng":"121.574214","mday":"20150406195530","sv":"1"},"0143":{"sno":"0143","sna":"MRT Taipei Zoo Sta.(Exit 2)","ar":"No.28, Sec. 2, Xinguang Rd.","sarea":"Wenshan Dist.","tot":"72","sbi":"6","bemp":"64","lat":"24.997659","lng":"121.578752","mday":"20150406195541","sv":"1"},"0144":{"sno":"0144","sna":"Nat’l Chengchi U.","ar":"No.6, Ln. 16, Wanshou Rd.","sarea":"Wenshan Dist.","tot":"70","sbi":"12","bemp":"57","lat":"24.988363","lng":"121.576536","mday":"20150406195523","sv":"1"},"0145":{"sno":"0145","sna":"Shude Park","ar":"Dalong St. / Ln. 85, Dalong St.","sarea":"Datong Dist.","tot":"40","sbi":"19","bemp":"21","lat":"25.066688","lng":"121.516149","mday":"20150406195531","sv":"1"},"0146":{"sno":"0146","sna":"MRT Shilin Sta.(Exit 2)","ar":"Ln. 247, Zhongzheng Rd. / Ln. 505, Sec. 5, Zhongshan N. Rd.","sarea":"Shilin Dist.","tot":"46","sbi":"34","bemp":"12","lat":"25.092546","lng":"121.526556","mday":"20150406195518","sv":"1"},"0147":{"sno":"0147","sna":"Shilin Sports Center","ar":"Sec. 4, Chengde Rd./Danan Rd.","sarea":"Shilin Dist.","tot":"32","sbi":"18","bemp":"14","lat":"25.089175","lng":"121.521814","mday":"20150406195527","sv":"1"},"0148":{"sno":"0148","sna":"MRT Mingde Sta.","ar":"Ln. 46, Sec. 1, Zhiyuan 1st Rd./Sec. 1, Xi’an St.","sarea":"Beitou Dist.","tot":"68","sbi":"27","bemp":"40","lat":"25.110331","lng":"121.518316","mday":"20150406195518","sv":"1"},"0149":{"sno":"0149","sna":"Beitou Sports Center","ar":"No.100, Ln. 39, Sec. 1, Shipai Rd.","sarea":"Beitou Dist.","tot":"62","sbi":"13","bemp":"49","lat":"25.116665","lng":"121.509621","mday":"20150406195344","sv":"1"},"0150":{"sno":"0150","sna":"Songde Park","ar":"No.20, Ln. 168, Songde Rd.","sarea":"Xinyi Dist.","tot":"38","sbi":"12","bemp":"25","lat":"25.036568","lng":"121.57343","mday":"20150406195523","sv":"1"},"0151":{"sno":"0151","sna":"Examination Yuan","ar":"Shiyuan Rd. / Sec. 1, Muzha Rd.,","sarea":"Wenshan Dist.","tot":"34","sbi":"7","bemp":"27","lat":"24.987507","lng":"121.549827","mday":"20150406195519","sv":"1"},"0152":{"sno":"0152","sna":"Bailing Elementary School","ar":"Ln. 100, Qiangang St. / Qiangang St.","sarea":"Shilin Dist.","tot":"40","sbi":"9","bemp":"31","lat":"25.08521","lng":"121.519175","mday":"20150406195542","sv":"1"},"0153":{"sno":"0153","sna":"Jiang Wei-shui Memorial Park","ar":"No.51, Jinxi St., Datong Dist.","sarea":"Datong Dist.","tot":"40","sbi":"6","bemp":"34","lat":"25.059885","lng":"121.516299","mday":"20150406195530","sv":"1"},"0154":{"sno":"0154","sna":"Zhongzheng & Jihe Intersection","ar":"No.420, Zhongzheng Rd.","sarea":"Shilin Dist.","tot":"38","sbi":"5","bemp":"33","lat":"25.093396","lng":"121.519867","mday":"20150406195540","sv":"1"},"0155":{"sno":"0155","sna":"Ruiguang & Gangqian Intersection","ar":"Ruiguang Rd. / Gangqian Rd.","sarea":"Neihu Dist.","tot":"30","sbi":"19","bemp":"9","lat":"25.076193","lng":"121.57505","mday":"20150406195339","sv":"1"},"0156":{"sno":"0156","sna":"Donghu Elementary School","ar":"Donghu Rd. / Ln. 119, Donghu Rd.","sarea":"Neihu Dist.","tot":"38","sbi":"21","bemp":"16","lat":"25.068409","lng":"121.615938","mday":"20150406195542","sv":"1"},"0157":{"sno":"0157","sna":"Lishan Elementary School","ar":"Ln. 411, Sec. 1, Neihu Rd. / Aly. 19, Ln. 411, Sec. 1, Neihu Rd.","sarea":"Neihu Dist.","tot":"42","sbi":"26","bemp":"16","lat":"25.082703","lng":"121.571467","mday":"20150406195523","sv":"1"},"0158":{"sno":"0158","sna":"MRT Donghu Sta.","ar":"Ln. 315, Ankang Rd./Ln. 14, Wufen St.","sarea":"Neihu Dist.","tot":"48","sbi":"5","bemp":"43","lat":"25.066635","lng":"121.613505","mday":"20150406195531","sv":"1"},"0159":{"sno":"0159","sna":"MRT Xihu Sta. (Exit 1)","ar":"Ln. 9, Sec. 1, Huanshan Rd./Ln. 285, Sec. 1, Neihu Rd.","sarea":"Neihu Dist.","tot":"36","sbi":"5","bemp":"31","lat":"25.082866","lng":"121.566695","mday":"20150406195527","sv":"1"},"0160":{"sno":"0160","sna":"MRT Zhongshan Sta. (Exit 4)","ar":"Nanjing W. Rd. / Ln. 25, Nanjing W. Rd.","sarea":"Datong Dist.","tot":"30","sbi":"19","bemp":"10","lat":"25.053082","lng":"121.52029","mday":"20150406195529","sv":"1"},"0161":{"sno":"0161","sna":"Dafong Park","ar":"Huanggang Rd. / Daxing St.","sarea":"Beitou Dist.","tot":"56","sbi":"5","bemp":"51","lat":"25.131143","lng":"121.503768","mday":"20150406195528","sv":"1"},"0162":{"sno":"0162","sna":"MRT Zhongshan Elementary School sta.(Exit 4)","ar":"Sec. 1, Minquan E. Rd./Sec. 3, Xinsheng N. Rd","sarea":"Zhongshan Dist.","tot":"70","sbi":"8","bemp":"62","lat":"25.062924","lng":"121.52772","mday":"20150406195333","sv":"1"},"0163":{"sno":"0163","sna":"MRT Linguang Sta. (Exit 2)","ar":"Sec. 3, Heping E. Rd./Ln. 416,Sec. 3, Heping E. Rd.","sarea":"Daan Dist.","tot":"72","sbi":"17","bemp":"55","lat":"25.018097","lng":"121.559279","mday":"20150406195522","sv":"1"},"0164":{"sno":"0164","sna":"MRT Qiyan Sta.","ar":"Sec. 1, Beitou Rd./Sec. 2, Sanhe St.","sarea":"Beitou Dist.","tot":"56","sbi":"15","bemp":"41","lat":"25.126286","lng":"121.500801","mday":"20150406195528","sv":"1"},"0165":{"sno":"0165","sna":"MRT Qilian Sta. (Exit 2)","ar":"Sec. 2, Xi'an St./Ln. 257,Sec. 2, Linong St.","sarea":"Beitou Dist.","tot":"62","sbi":"43","bemp":"19","lat":"25.120788","lng":"121.505693","mday":"20150406195516","sv":"1"},"0166":{"sno":"0166","sna":"Taipei JingMei Girls High School","ar":"Sec. 3, Muxin Rd./Yishou St.","sarea":"Wenshan Dist.","tot":"34","sbi":"17","bemp":"17","lat":"24.980602","lng":"121.556177","mday":"20150406195524","sv":"1"},"0167":{"sno":"0167","sna":"Taipei Astronomical Museum","ar":"No.363, Jihe Rd.","sarea":"Shilin Dist.","tot":"50","sbi":"21","bemp":"28","lat":"25.095714","lng":"121.518046","mday":"20150406195516","sv":"1"},"0168":{"sno":"0168","sna":"Heti Elementary School","ar":"No.1, Aly. 23, Lane 12, Jinmen St.","sarea":"Zhongzheng Dist.","tot":"44","sbi":"6","bemp":"38","lat":"25.02288","lng":"121.522855","mday":"20150406195541","sv":"1"},"0169":{"sno":"0169","sna":"Taipei Botanical Garden","ar":"No.100, Sec. 2, Heping W. Rd.","sarea":"Zhongzheng Dist.","tot":"44","sbi":"3","bemp":"40","lat":"25.030015","lng":"121.509813","mday":"20150406195339","sv":"1"},"0170":{"sno":"0170","sna":"XinDong Park","ar":"Sec. 5, Minsheng E. Rd./Tayou Rd.","sarea":"Songshan Dist.","tot":"50","sbi":"12","bemp":"38","lat":"25.059245","lng":"121.568883","mday":"20150406195517","sv":"1"},"0171":{"sno":"0171","sna":"Taipei Wen Shan Sports Center","ar":"Sec. 3, Xinglong Rd./Aly. 8, Ln. 192, Sec. 3, Xinglong Rd.","sarea":"Wenshan Dist.","tot":"38","sbi":"3","bemp":"34","lat":"24.996842","lng":"121.559651","mday":"20150406195522","sv":"1"},"0172":{"sno":"0172","sna":"MRT Nanjing Sanmin Sta. (Exit 1)","ar":"Sec. 5, Nanjing E. Rd./Sanmin Rd.","sarea":"Songshan Dist.","tot":"24","sbi":"3","bemp":"21","lat":"25.051518","lng":"121.563785","mday":"20150406195520","sv":"1"},"0173":{"sno":"0173","sna":"MRT Songjiang Nanjing Sta. (Exit 7)","ar":"Sec. 2, Nanjing E. Rd./Sec. 2, Nanjing E. Rd.","sarea":"Zhongshan Dist.","tot":"56","sbi":"19","bemp":"37","lat":"25.052181","lng":"121.533211","mday":"20150406195540","sv":"1"},"0174":{"sno":"0174","sna":"MRT Taipei Arena Sta. (Exit 5)","ar":"Sec. 4, Nanjing E. Rd./Jiankang Rd.","sarea":"Songshan Dist.","tot":"56","sbi":"12","bemp":"44","lat":"25.051702","lng":"121.553057","mday":"20150406195543","sv":"1"},"0175":{"sno":"0175","sna":"MRT Nanjing Fuxing Sta. (Exit 5)","ar":"Sec. 3, Nanjing E. Rd./Ln. 256, Sec. 3, Nanjing E. Rd.","sarea":"Songshan Dist.","tot":"52","sbi":"16","bemp":"36","lat":"25.051618","lng":"121.544847","mday":"20150406195515","sv":"1"},"0176":{"sno":"0176","sna":"Xingan Huacheng Community","ar":"Xing’an St./Liaoning St.","sarea":"Zhongshan Dist.","tot":"98","sbi":"21","bemp":"76","lat":"25.055997","lng":"121.542318","mday":"20150406195533","sv":"1"},"0177":{"sno":"0177","sna":"Hulu Elementary School","ar":"Sec. 3, Huanhe N. Rd./Hulu St.","sarea":"Shilin Dist.","tot":"40","sbi":"14","bemp":"26","lat":"25.082538","lng":"121.507495","mday":"20150406195536","sv":"1"},"0178":{"sno":"0178","sna":"Yanping Public Housing","ar":"No.40, Ln. 1, Sec. 5, Yanping N. Rd.","sarea":"Shilin Dist.","tot":"32","sbi":"13","bemp":"18","lat":"25.078908","lng":"121.510306","mday":"20150406195537","sv":"1"},"0179":{"sno":"0179","sna":"Nangang Park","ar":"No.383, Fude St.","sarea":"Nangang Dist.","tot":"52","sbi":"7","bemp":"45","lat":"25.041278","lng":"121.590885","mday":"20150406195523","sv":"1"},"0180":{"sno":"0180","sna":"Fuhua Market","ar":"Sec. 6, Minquan E. Rd./Ln. 180, Sec. 6, Minquan E. Rd.","sarea":"Neihu Dist.","tot":"40","sbi":"6","bemp":"34","lat":"25.068770","lng":"121.592654","mday":"20150406195533","sv":"1"},"0181":{"sno":"0181","sna":"JianGuo & Heping Intersection","ar":"Sec. 2, Jianguo S. Rd./Sec. 2, Heping E. Rd.","sarea":"Daan Dist.","tot":"52","sbi":"5","bemp":"47","lat":"25.025850","lng":"121.537383","mday":"20150406195538","sv":"1"},"0182":{"sno":"0182","sna":"MRT Guting Sta. (Exit 2)","ar":"Sec. 2, Roosevelt Rd./Ln. 174, Sec. 2, Roosevelt Rd.","sarea":"Zhongzheng Dist.","tot":"50","sbi":"7","bemp":"42","lat":"25.025300","lng":"121.523537","mday":"20150406195516","sv":"1"},"0183":{"sno":"0183","sna":"Yuanhuan","ar":"Nanjing W. Rd./Sec. 1, Chongqing N. Rd.","sarea":"Datong Dist.","tot":"38","sbi":"14","bemp":"24","lat":"25.053884","lng":"121.514549","mday":"20150406195527","sv":"1"},"0184":{"sno":"0184","sna":"Jiantan Community","ar":"No.143, Tongbei St.","sarea":"Zhongshan Dist.","tot":"42","sbi":"8","bemp":"33","lat":"25.084759","lng":"121.537892","mday":"20150406195524","sv":"1"},"0185":{"sno":"0185","sna":"LiuGong Park","ar":"Ln. 75, Sec. 1/Ln. 75, Sec. 1, Da’an Rd.","sarea":"Daan Dist.","tot":"30","sbi":"0","bemp":"28","lat":"25.042342","lng":"121.546050","mday":"20150406195528","sv":"1"},"0186":{"sno":"0186","sna":"University of Taipei","ar":"Aiguo W. Rd./Gongyuan Rd.","sarea":"Zhongzheng Dist.","tot":"82","sbi":"0","bemp":"81","lat":"25.035414","lng":"121.514218","mday":"20150406195526","sv":"1"},"0187":{"sno":"0187","sna":"Renai & Yanji Intersection","ar":"Sec. 4, Ren’ai Rd./Yanji St.","sarea":"Daan Dist.","tot":"34","sbi":"6","bemp":"28","lat":"25.037465","lng":"121.555769","mday":"20150406195334","sv":"1"},"0188":{"sno":"0188","sna":"Taipei Municipal Shezi Elementary School","ar":"Sec. 6, Yanping N. Rd./Shezhong St.","sarea":"Shilin Dist.","tot":"60","sbi":"27","bemp":"33","lat":"25.090293","lng":"121.501890","mday":"20150406195517","sv":"1"},"0189":{"sno":"0189","sna":"JinRui Park","ar":"No.7, Aly. 1, Ln. 213, Jinlong Rd.","sarea":"Neihu Dist.","tot":"38","sbi":"14","bemp":"22","lat":"25.087848","lng":"121.587821","mday":"20150406195519","sv":"1"},"0190":{"sno":"0190","sna":"MRT Dazhi Sta. (Exit 3)","ar":"Aly. 41, Ln. 458, Bei’an Rd./Ln. 536, Bei’an Rd.","sarea":"Zhongshan Dist.","tot":"52","sbi":"5","bemp":"47","lat":"25.079278","lng":"121.546683","mday":"20150406195516","sv":"1"},"0191":{"sno":"0191","sna":"MRT Dahu Park Sta. (Exit 2)","ar":"Sec. 5, Chenggong Rd./Dahu Shanzhuang St.","sarea":"Neihu Dist.","tot":"58","sbi":"27","bemp":"28","lat":"25.083945","lng":"121.601854","mday":"20150406195523","sv":"1"},"0192":{"sno":"0192","sna":"MRT Huzhou Sta. (Exit 1)","ar":"Sec. 3, Kangning Rd./Aly. 21, Ln. 450, Sec. 5, Chenggong Rd.","sarea":"Neihu Dist.","tot":"44","sbi":"18","bemp":"26","lat":"25.072485","lng":"121.607955","mday":"20150406195537","sv":"1"},"0193":{"sno":"0193","sna":"Jiuzhuang Recreation Center","ar":"Ln. 91, Sec. 1, Jiuzhuang St./Aly. 12, Ln. 91, Sec. 1, Jiuzhuang St.","sarea":"Nangang Dist.","tot":"36","sbi":"6","bemp":"30","lat":"25.041277","lng":"121.619350","mday":"20150406195541","sv":"1"},"0194":{"sno":"0194","sna":"Civic Blvd Linsen Intersection","ar":"Sec. 2, Civic Blvd./Linsen N. Rd.","sarea":"Zhongshan Dist.","tot":"50","sbi":"9","bemp":"41","lat":"25.047958","lng":"121.524388","mday":"20150406195530","sv":"1"},"0195":{"sno":"0195","sna":"Xinyi Hangzhou Intersection(Chunghwa Telecom)","ar":"Sec. 1, Xinyi Rd./Sec. 1, Hangzhou S. Rd.","sarea":"Zhongzheng Dist.","tot":"50","sbi":"5","bemp":"45","lat":"25.035851","lng":"121.523987","mday":"20150406195522","sv":"1"},"0196":{"sno":"0196","sna":"Xinhu Elementary School","ar":"Sec. 6, Minquan E. Rd./Aly. 31, Ln. 320, Sec. 2, Chenggong Rd.","sarea":"Neihu Dist.","tot":"24","sbi":"10","bemp":"13","lat":"25.068744","lng":"121.589233","mday":"20150406195523","sv":"1"},"7001":{"sno":7001,"sna":"Changhua Train Station","ar":"Sec.1,Zhongzheng Rd/Guangfu Rd","sarea":"Changhua City","tot":"96","sbi":"0","bemp":"93","lat":"24.08116289","lng":"120.539128","mday":"20150406195518","sv":"1"},"7002":{"sno":7002,"sna":"Changhua Railway Rear Station","ar":"Zhongxiao St/Cixiu Rd","sarea":"Changhua City","tot":"70","sbi":"9","bemp":"60","lat":"24.082426","lng":"120.536982","mday":"20150406195517","sv":"1"},"7003":{"sno":7003,"sna":"Da Cheng Elementary School","ar":"Ziqiang Rd/Ln. 229, Ziqiang Rd","sarea":"Changhua City","tot":"36","sbi":"12","bemp":"24","lat":"24.091114","lng":"120.546439","mday":"20150406195539","sv":"1"},"7004":{"sno":7004,"sna":"Tai He Elementary School","ar":"Jianguo E. Rd/Taifeng St","sarea":"Changhua City","tot":"44","sbi":"19","bemp":"22","lat":"24.09371","lng":"120.552512","mday":"20150406195520","sv":"1"},"7005":{"sno":7005,"sna":"Huaxing Park","ar":"Sec. 2, Jinma Rd/Ln. 115, Sec. 1, Zhangxin Rd","sarea":"Changhua City","tot":"32","sbi":"10","bemp":"22","lat":"24.091114","lng":"120.538012","mday":"20150406195527","sv":"1"},"7006":{"sno":7006,"sna":"Zhong Zheng Park","ar":"Pinghe 11th St/Pinghe 14th St","sarea":"Changhua City","tot":"42","sbi":"21","bemp":"21","lat":"24.068017","lng":"120.531188","mday":"20150406195519","sv":"1"},"7007":{"sno":7007,"sna":"Hsin Yi Junior High & Elementary School","ar":"Xiangyang St/Lunping S. Rd","sarea":"Changhua City","tot":"36","sbi":"12","bemp":"22","lat":"24.063276","lng":"120.527583","mday":"20150406195527","sv":"1"},"7008":{"sno":7008,"sna":"Cheng Gong Community Activity Center","ar":"Minsheng S. Rd/Xuguang W. Rd","sarea":"Changhua City","tot":"32","sbi":"3","bemp":"28","lat":"24.071206","lng":"120.541735","mday":"20150406195517","sv":"1"},"7009":{"sno":7009,"sna":"Changhua County Police Bureau","ar":"Ln. 800, Sec. 2, Zhongzheng Rd/Sec. 2, Zhongzheng Rd","sarea":"Changhua City","tot":"40","sbi":"22","bemp":"18","lat":"24.065274","lng":"120.534621","mday":"20150406195540","sv":"1"},"7010":{"sno":7010,"sna":"Changhua County Government","ar":"Sec. 2, Zhongshan Rd/Sec. 1, Nanguo Rd","sarea":"Changhua City","tot":"50","sbi":"21","bemp":"29","lat":"24.074962","lng":"120.545109","mday":"20150406195529","sv":"1"},"7011":{"sno":7011,"sna":"Changhua County Public Library","ar":"Sec. 2, Zhongshan Rd/Dongmin St","sarea":"Changhua City","tot":"40","sbi":"8","bemp":"30","lat":"24.07842","lng":"120.545066","mday":"20150406195532","sv":"1"},"7012":{"sno":7012,"sna":"Chung Shan Elementary School","ar":"Sec. 2, Zhongshan Rd/Yongchang St","sarea":"Changhua City","tot":"36","sbi":"0","bemp":"35","lat":"24.081976","lng":"120.546176","mday":"20150406195519","sv":"1"},"7013":{"sno":7013,"sna":"Indigenous Peoples Activity Center","ar":"Sec. 3, Zhongshan Rd/No.226, Sec. 3, Zhongshan Rd","sarea":"Changhua City","tot":"30","sbi":"2","bemp":"27","lat":"24.086457","lng":"120.559974","mday":"20150406195523","sv":"1"},"7014":{"sno":7014,"sna":"The Affiliated Industrial National Vocational High School","ar":"Gongxiao St./Zhuhe Rd.","sarea":"Changhua City","tot":"60","sbi":"23","bemp":"35","lat":"24.08419","lng":"120.556315","mday":"20150406195533","sv":"1"},"7015":{"sno":7015,"sna":"National Changhua University of Education","ar":"Jin-De Road/Jin-De Road Ln.2","sarea":"Changhua City","tot":"50","sbi":"5","bemp":"43","lat":"24.082828","lng":"120.558649","mday":"20150406195539","sv":"1"},"7016":{"sno":7016,"sna":"Chang Sing Junior High School","ar":"Ln. 97, Puxi St/Puxi St","sarea":"Changhua City","tot":"30","sbi":"7","bemp":"21","lat":"24.059161","lng":"120.538473","mday":"20150406195520","sv":"1"},"7017":{"sno":7017,"sna":"Han Ming Hospital","ar":"Sec. 1, Zhongshan Rd/Yunchang Rd","sarea":"Changhua City","tot":"32","sbi":"17","bemp":"15","lat":"24.061081","lng":"120.535794","mday":"20150406195537","sv":"1"},"7018":{"sno":7018,"sna":"Yangming Junior High School","ar":"Changshun St/Sanmin Rd","sarea":"Changhua City","tot":"38","sbi":"23","bemp":"14","lat":"24.086839","lng":"120.549417","mday":"20150406195524","sv":"1"},"7019":{"sno":7019,"sna":"Ching Cheng High School","ar":"Jingcheng Rd/Linsen Rd","sarea":"Changhua City","tot":"50","sbi":"14","bemp":"34","lat":"24.073562","lng":"120.527465","mday":"20150406195533","sv":"1"},"7020":{"sno":7020,"sna":"Chienkuo Technology University","ar":"Aly. 1, Ln. 108, Jieshou N. Rd","sarea":"Changhua City","tot":"78","sbi":"29","bemp":"46","lat":"24.067811","lng":"120.548387","mday":"20150406195539","sv":"1"},"7021":{"sno":7021,"sna":"Jhong Siao Elementary School","ar":"Zhongcheng Rd  & Xiaode St","sarea":"Changhua City","tot":"38","sbi":"10","bemp":"28","lat":"24.084525","lng":"120.531894","mday":"20150406195518","sv":"1"},"7022":{"sno":7022,"sna":"Changhua Christian Hospital","ar":"No.235, Xuguang Rd","sarea":"Changhua City","tot":"34","sbi":"10","bemp":"24","lat":"24.071353","lng":"120.545484","mday":"20150406195535","sv":"1"},"7023":{"sno":7023,"sna":"Yanping Park","ar":"No.12, Ln. 61, Nanping St.","sarea":"Changhua City","tot":"40","sbi":"14","bemp":"26","lat":"24.066225","lng":"120.540608","mday":"20150406195543","sv":"1"},"7024":{"sno":7024,"sna":"Changhua County Government Office Building II","ar":"No.20, Jianbao St","sarea":"Changhua City","tot":"40","sbi":"2","bemp":"38","lat":"24.069634","lng":"120.545769","mday":"20150406195531","sv":"1"},"7025":{"sno":7025,"sna":"Chang'an & Zhonghua Intersection","ar":"No.174, Chang’an St","sarea":"Changhua City","tot":"30","sbi":"1","bemp":"29","lat":"24.078508","lng":"120.539353","mday":"20150406195530","sv":"1"},"7026":{"sno":7026,"sna":"Changhua County Public Health Bureau","ar":"Sec. 2, Zhongshan Rd/Ln. 158, Chang’an St","sarea":"Changhua City","tot":"40","sbi":"15","bemp":"25","lat":"24.068977","lng":"120.541129","mday":"20150406195542","sv":"1"},"7027":{"sno":7027,"sna":"The Intersection of Ln.219,Minzu Rd.","ar":"Minzu Rd./The Intersection of Ln.219,Minzu Rd.","sarea":"Changhua city","tot":"28","sbi":"14","bemp":"14","lat":"24.070936","lng":"120.539095","mday":"20150406195524","sv":"1"},"7028":{"sno":7028,"sna":"Ping He Elementary School","ar":"No.495, Sec. 2, Zhongzheng Rd(prep)","sarea":"Changhua city","tot":"30","sbi":"10","bemp":"20","lat":"24.071093","lng":"120.535866","mday":"20150406195522","sv":"1"},"7029":{"sno":7029,"sna":"Changhua Senior High School","ar":"Nanguo Rd／Ln. 191, Sec. 1, Nanguo Rd","sarea":"Changhua city","tot":"68","sbi":"16","bemp":"50","lat":"24.073731","lng":"120.548572","mday":"20150406195521","sv":"1"},"7030":{"sno":7030,"sna":"Changhua County Changhua Arts Senior High School","ar":"No.409, Sec. 1, Gongyuan Rd","sarea":"Changhua City","tot":"40","sbi":"11","bemp":"29","lat":"24.075322","lng":"120.55433","mday":"20150406195534","sv":"1"},"7031":{"sno":7031,"sna":"San Duo Park","ar":"Sec. 2, Zhongshan Rd.","sarea":"Yuanlin Township","tot":"52","sbi":"11","bemp":"41","lat":"23.969953","lng":"120.571365","mday":"20150406195533","sv":"1"},"7032":{"sno":7032,"sna":"San Hua Park","ar":"Ln. 129, Sec. 2, Datong Rd. / Ln. 37, Daren S. St.","sarea":"Yuanlin Township","tot":"56","sbi":"26","bemp":"30","lat":"23.967985","lng":"120.576829","mday":"20150406195529","sv":"1"},"7033":{"sno":7033,"sna":"National Yuanlin Senior High School","ar":"Jingxiu Rd.","sarea":"Yuanlin Township","tot":"56","sbi":"11","bemp":"45","lat":"23.962426","lng":"120.563353","mday":"20150406195544","sv":"1"},"7034":{"sno":7034,"sna":"San Jiao Park","ar":"Sec. 2, Zhongshan Rd. / Jingxiu Rd.","sarea":"Yuanlin Township","tot":"54","sbi":"21","bemp":"32","lat":"23.962387","lng":"120.57096","mday":"20150406195346","sv":"1"},"7035":{"sno":7035,"sna":"Yuanlin Precinct, Chang Hua County Police Department","ar":"Sec. 1, Datong Rd. / Sec. 1, Heping E. St.","sarea":"Yuanlin Township","tot":"54","sbi":"18","bemp":"36","lat":"23.96296","lng":"120.579699","mday":"20150406195528","sv":"1"},"7036":{"sno":7036,"sna":"National Yuanlin ChungShih Industrial Vocational High School","ar":"No.120, Heping E. St.","sarea":"Yuanlin Township","tot":"38","sbi":"23","bemp":"15","lat":"23.962068","lng":"120.57478","mday":"20150406195539","sv":"1"},"7037":{"sno":7037,"sna":"Zhi Shan Park","ar":"Zhiping St. / Furong St.","sarea":"Yuanlin Township","tot":"60","sbi":"16","bemp":"44","lat":"23.959641","lng":"120.564829","mday":"20150406195537","sv":"1"},"7038":{"sno":7038,"sna":"Yuanlin Train Station Front Plaza","ar":"No.54, Minquan St.","sarea":"Yuanlin Township","tot":"100","sbi":"41","bemp":"59","lat":"23.959313","lng":"120.570467","mday":"20150406195521","sv":"1"},"7039":{"sno":7039,"sna":"Yuanlin Township Office","ar":"No.18, Sanmin St.","sarea":"Yuanlin Township","tot":"60","sbi":"17","bemp":"43","lat":"23.958936","lng":"120.574721","mday":"20150406195529","sv":"1"},"7040":{"sno":7040,"sna":"Yuanlin Post Office","ar":"Linsen Rd.","sarea":"Yuanlin Township","tot":"50","sbi":"13","bemp":"37","lat":"23.95782","lng":"120.577655","mday":"20150406195526","sv":"1"},"7041":{"sno":7041,"sna":"Di Yi Market","ar":"No.130, Minsheng Rd.","sarea":"Yuanlin Township","tot":"52","sbi":"30","bemp":"22","lat":"23.95645","lng":"120.573036","mday":"20150406195526","sv":"1"},"7042":{"sno":7042,"sna":"National Yuanlin Agricultural and Industrial Vocational High School","ar":"Sec. 2, Yuanshui Rd.","sarea":"Yuanlin Township","tot":"50","sbi":"9","bemp":"41","lat":"23.955386","lng":"120.58141","mday":"20150406195544","sv":"1"},"7043":{"sno":7043,"sna":"Senior Cultural and Entertainment Activity Center","ar":"Ln. 18, Huiming St.","sarea":"Yuanlin Township","tot":"36","sbi":"18","bemp":"17","lat":"23.952859","lng":"120.571816","mday":"20150406195532","sv":"1"},"7044":{"sno":7044,"sna":"Tai Shan Parking Lot","ar":"Sec. 2, Fuzun Rd. / Daren S. St.","sarea":"Yuanlin Township","tot":"44","sbi":"7","bemp":"37","lat":"23.965078","lng":"120.575809","mday":"20150406195542","sv":"1"},"7045":{"sno":7045,"sna":"Yuanlin Elementary School","ar":"","sarea":"Yuanlin Township","tot":"48","sbi":"26","bemp":"20","lat":"23.960225","lng":"120.580144","mday":"20150406195528","sv":"1"},"7046":{"sno":7046,"sna":"Yue-Ying Elementary School","ar":"","sarea":"Yuanlin Township","tot":"60","sbi":"8","bemp":"52","lat":"23.95292","lng":"120.574393","mday":"20150406195528","sv":"1"},"7047":{"sno":7047,"sna":"Changhua District Court","ar":"","sarea":"Yuanlin Township","tot":"48","sbi":"19","bemp":"29","lat":"23.965865","lng":"120.571708","mday":"20150406195526","sv":"1"},"7048":{"sno":7048,"sna":"Yuanlin Bus Terminal","ar":"","sarea":"Yuanlin Township","tot":"46","sbi":"18","bemp":"28","lat":"23.962352","lng":"120.568948","mday":"20150406195515","sv":"1"},"7049":{"sno":7049,"sna":"Yuanlin Performance Hall","ar":"No.99, Ln. 2, Zhongzheng Rd.","sarea":"Yuanlin Township","tot":"48","sbi":"15","bemp":"33","lat":"23.949145","lng":"120.57883","mday":"20150406195523","sv":"1"},"7050":{"sno":7050,"sna":"Changhua Show Chwan Memorial Hospital","ar":"Sec. 1, Zhongzheng Rd./Ln. 556, Sec. 1, Zhongzheng Rd.,","sarea":"Changhua City","tot":"40","sbi":"1","bemp":"39","lat":"24.065206","lng":"120.537465","mday":"20150406195517","sv":"1"},"7051":{"sno":7051,"sna":"Changhua County Visitor Information Center","ar":"Fuxing Rd.","sarea":"Lukang Township","tot":"100","sbi":"53","bemp":"44","lat":"24.058904","lng":"120.434417","mday":"20150406195516","sv":"1"},"7052":{"sno":7052,"sna":"Loo Jing Elementary School","ar":"Fuxing S. Rd./Fuxing Rd.","sarea":"Lukang Township","tot":"68","sbi":"11","bemp":"56","lat":"24.055531","lng":"120.429221","mday":"20150406195517","sv":"1"},"7053":{"sno":7053,"sna":"Guihua Lane Artists Village","ar":"Gongyuan 1rd Rd./Chenggong Rd.","sarea":"Lukang Township","tot":"56","sbi":"20","bemp":"35","lat":"24.056364","lng":"120.430651","mday":"20150406195530","sv":"1"},"7054":{"sno":7054,"sna":"Lukang Township Office","ar":"Minquan Rd./Zhongxiao Rd.","sarea":"Lukang Township","tot":"48","sbi":"24","bemp":"24","lat":"24.057138","lng":"120.43487","mday":"20150406195529","sv":"1"},"7055":{"sno":7055,"sna":"The First Parking Lot","ar":"No.252, Minzu Rd.","sarea":"Lukang Township","tot":"46","sbi":"23","bemp":"23","lat":"24.05367","lng":"120.432832","mday":"20150406195524","sv":"1"},"7056":{"sno":7056,"sna":"Lukang Library & Art Center","ar":"Jingxing St. Parking","sarea":"Lukang Township","tot":"54","sbi":"14","bemp":"35","lat":"24.046569","lng":"120.438419","mday":"20150406195542","sv":"1"},"7057":{"sno":7057,"sna":"Lukang Folk Arts Museum","ar":"No.80, Guanqian St.","sarea":"Lukang Township","tot":"56","sbi":"17","bemp":"36","lat":"24.054177","lng":"120.436705","mday":"20150406195536","sv":"1"},"7058":{"sno":7058,"sna":"Fuxing Township first Parking Lot","ar":"No.120, Fuxing. Rd.","sarea":"Lukang Township","tot":"60","sbi":"15","bemp":"41","lat":"24.05259","lng":"120.438842","mday":"20150406195522","sv":"1"},"7059":{"sno":7059,"sna":"Lukang Senior High School","ar":"No.596, Zhongshan Rd.","sarea":"Lukang Township","tot":"60","sbi":"12","bemp":"47","lat":"24.060339","lng":"120.42714","mday":"20150406195525","sv":"1"},"7060":{"sno":7060,"sna":"Lukang police Department","ar":"No.295, Dongxing Rd.","sarea":"Lukang Township","tot":"60","sbi":"14","bemp":"45","lat":"24.058975","lng":"120.43818","mday":"20150406195540","sv":"1"},"7061":{"sno":7061,"sna":"Lukang public Library","ar":"No.83, Gongyuan 3rd Rd.","sarea":"Lukang Township","tot":"58","sbi":"21","bemp":"37","lat":"24.055051","lng":"120.431338","mday":"20150406195520","sv":"1"},"7062":{"sno":7062,"sna":"Ludong Elementary School","ar":"Minzhu St./Zizhi St.","sarea":"Lukang Township","tot":"50","sbi":"13","bemp":"36","lat":"24.058632","lng":"120.441871","mday":"20150406195518","sv":"1"},"7063":{"sno":7063,"sna":"Lukang sport field","ar":"Jianguo Rd./Zhongzheng Rd.","sarea":"Lukang Township","tot":"58","sbi":"25","bemp":"33","lat":"24.062757","lng":"120.435272","mday":"20150406195517","sv":"1"},"7064":{"sno":7064,"sna":"Lukang Christian Hospital","ar":"No.147, Ziyou Rd.","sarea":"Lukang Township","tot":"50","sbi":"20","bemp":"29","lat":"24.060934","lng":"120.437716","mday":"20150406195529","sv":"1"},"7065":{"sno":7065,"sna":"Lukang Dincuo park","ar":"No.47, Luxing Rd.","sarea":"Lukang Township","tot":"50","sbi":"8","bemp":"41","lat":"24.05501","lng":"120.444416","mday":"20150406195524","sv":"1"},"7066":{"sno":7066,"sna":"Wenwu temple","ar":"Sec. 8, Zhanglu Rd.","sarea":"Lukang Township","tot":"56","sbi":"25","bemp":"31","lat":"24.049305","lng":"120.438947","mday":"20150406195527","sv":"1"},"7067":{"sno":7067,"sna":"Lukang Lungshan Temple","ar":"Fuxing S. Rd./Minsheng Rd.","sarea":"Lukang Township","tot":"50","sbi":"29","bemp":"21","lat":"24.056399","lng":"120.42876","mday":"20150406195534","sv":"1"},"7068":{"sno":7068,"sna":"Fuxing S. Rd./Sanmin Rd.","ar":"Fuxing Rd./Sanmin Rd.","sarea":"Lukang Township","tot":"50","sbi":"14","bemp":"36","lat":"24.050978","lng":"120.431724","mday":"20150406195530","sv":"1"},"3001":{"sno":3001,"sna":"Feng Chia University","ar":"Fuxing Rd & Fengjia Rd Intersection","sarea":"Xitun Dist.","tot":"100","sbi":"46","bemp":"54","lat":"24.178695","lng":"120.645010","mday":"20150406195532","sv":"1"},"3002":{"sno":3002,"sna":"Maple Valley Park","ar":"Chaofu Rd  & Chaoma Rd Intersection","sarea":"Xitun Dist.","tot":"96","sbi":"25","bemp":"69","lat":"24.167898","lng":"120.638895","mday":"20150406195524","sv":"1"},"3003":{"sno":3003,"sna":"Taichung City Hall (Wenxin Building)","ar":"No.645, Sec. 2, Wenxin Rd","sarea":"Xitun Dist.","tot":"64","sbi":"10","bemp":"54","lat":"24.161438","lng":"120.648701","mday":"20150406195527","sv":"1"},"3004":{"sno":3004,"sna":"Hanxiang Rd. / Fuxing N. Rd.","ar":"Hanxiang Rd & Fuxing N. Rd Intersection","sarea":"Xitun Dist.","tot":"60","sbi":"17","bemp":"42","lat":"24.185214","lng":"120.644423","mday":"20150406195530","sv":"1"},"3005":{"sno":3005,"sna":"Fuxing Park","ar":"Ln. 50, Baoqing St & Ln. 301, Sec. 2, Henan Rd","sarea":"Xitun Dist.","tot":"40","sbi":"16","bemp":"24","lat":"24.172421","lng":"120.6481","mday":"20150406195522","sv":"1"},"3006":{"sno":3006,"sna":"Cherry Blossoms Baseball Field","ar":"Yinghua Rd & Luoyang Rd Intersection","sarea":"Xitun Dist.","tot":"58","sbi":"27","bemp":"31","lat":"24.168671","lng":"120.653109","mday":"20150406195527","sv":"1"},"3007":{"sno":3007,"sna":"Chongqing Park","ar":"Sec. 2, Situn Rd & Tianshui W. 6th St","sarea":"Xitun Dist.","tot":"40","sbi":"5","bemp":"35","lat":"24.1658893012632","lng":"120.655551552772","mday":"20150406195526","sv":"1"},"3008":{"sno":3008,"sna":"Ding He Cuo(BRT)","ar":"Sec. 2, Taiwan Blvd & Sec. 3, Dongxing Rd  Intersection","sarea":"Xitun Dist.","tot":"38","sbi":"4","bemp":"34","lat":"24.159079","lng":"120.655825","mday":"20150406195532","sv":"1"},"3009":{"sno":3009,"sna":"Gongyi Rd. / Daying St.","ar":"Sec. 2, Gongyi Rd & Daying St Intersection","sarea":"Nantun Dist.","tot":"40","sbi":"22","bemp":"18","lat":"24.150814","lng":"120.648481","mday":"20150406195525","sv":"1"},"3010":{"sno":3010,"sna":"Shin Kong Mitsukoshi / Top City Dept. Store (BRT)","ar":"Sec. 3, Taiwan Blvd & Sec. 2, Hueilai Rd","sarea":"Xitun Dist.","tot":"52","sbi":"4","bemp":"48","lat":"24.166146","lng":"120.642929","mday":"20150406195533","sv":"1"},"3013":{"sno":3013,"sna":"Dadun 7th St. / Henan Rd.","ar":"Dadun 7th St & Sec. 4, Henan Rd Intersection","sarea":"Nantun Dist.","tot":"50","sbi":"16","bemp":"34","lat":"24.144259","lng":"120.639554","mday":"20150406195544","sv":"1"},"3015":{"sno":3015,"sna":"Boguan Rd. / Yude Rd.","ar":"Boguan Rd & Yude Rd Intersection","sarea":"North Dist.","tot":"66","sbi":"13","bemp":"51","lat":"24.157464","lng":"120.669111","mday":"20150406195532","sv":"1"},"3016":{"sno":3016,"sna":"National Museum of Natural Science(BRT)/ The Splendor Hotel","ar":"Sec. 1, Taiwan Blvd & Jianxing Rd","sarea":"West Dist.","tot":"54","sbi":"7","bemp":"47","lat":"24.155525","lng":"120.66304","mday":"20150406195542","sv":"1"},"3017":{"sno":3017,"sna":"Chung-Cheng Elementary School (BRT)","ar":"Yingcai Rd & Ln. 179, Sec. 2, Taiwan Blvd","sarea":"West Dist.","tot":"58","sbi":"13","bemp":"45","lat":"24.152483","lng":"120.666281","mday":"20150406195533","sv":"1"},"3018":{"sno":3018,"sna":"Qie Dong Jiao(BRT)","ar":"Sec. 1, Taiwan Blvd & Sec. 2, Meichuan E. Rd","sarea":"West Dist.","tot":"54","sbi":"6","bemp":"48","lat":"24.150107","lng":"120.671377","mday":"20150406195516","sv":"1"},"3019":{"sno":3019,"sna":"Wan-Shou Baseball Field","ar":"Sec. 1, Xiangshang Rd & Dajin St Intersection","sarea":"West Dist.","tot":"52","sbi":"23","bemp":"29","lat":"24.146568","lng":"120.650534","mday":"20150406195523","sv":"1"},"3020":{"sno":3020,"sna":"Gong Yi Park","ar":"Zhongming S. Rd & Gongyi Rd  Intersection","sarea":"West Dist.","tot":"48","sbi":"13","bemp":"35","lat":"24.150423","lng":"120.657475","mday":"20150406195519","sv":"1"},"3021":{"sno":3021,"sna":"Dadun Cultural Center","ar":"Wuquan Rd & Yingcai Rd Intersection","sarea":"West Dist.","tot":"34","sbi":"11","bemp":"23","lat":"24.141249","lng":"120.666531","mday":"20150406195528","sv":"1"},"3022":{"sno":3022,"sna":"Ying Shi Park","ar":"Rixing St & Yingshi Rd Intersection","sarea":"North Dist.","tot":"40","sbi":"20","bemp":"20","lat":"24.151149","lng":"120.675577","mday":"20150406195524","sv":"1"},"3023":{"sno":3023,"sna":"Dalong Rd./ Dongxing Rd.","ar":"No.40, Dalong Rd","sarea":"Xitun Dist.","tot":"48","sbi":"8","bemp":"39","lat":"24.155731","lng":"120.654096","mday":"20150406195524","sv":"1"},"3024":{"sno":3024,"sna":"Wen-Hsin Forest Park","ar":"Sec. 1, Wenxin Rd  &  Sec. 2, Xiangshang Rd Intersection","sarea":"Nantun Dist.","tot":"48","sbi":"24","bemp":"24","lat":"24.146743","lng":"120.646119","mday":"20150406195515","sv":"1"},"3025":{"sno":3025,"sna":"Wuquan W. Rd./ Wenxin Rd.","ar":"Sec. 2, Wuquan W. Rd & Sec. 1, Wenxin Rd Intersection","sarea":"Nantun Dist.","tot":"42","sbi":"27","bemp":"13","lat":"24.139937","lng":"120.646885","mday":"20150406195515","sv":"1"},"3026":{"sno":3026,"sna":"Taichung Prefectural Hall","ar":"Shifu Rd & Minquan Rd Intersection","sarea":"West Dist.","tot":"42","sbi":"24","bemp":"17","lat":"24.138299","lng":"120.678756","mday":"20150406195532","sv":"1"},"3027":{"sno":3027,"sna":"Taichung Park ","ar":"Gongyuan Rd & Sec. 2, Ziyou Rd Intersection","sarea":"North Dist.","tot":"60","sbi":"31","bemp":"29","lat":"24.142596","lng":"120.684231","mday":"20150406195526","sv":"1"},"3028":{"sno":3028,"sna":"Confucius Temple","ar":"Sec. 2, Shuangshi Rd & Lixing Rd Intersection","sarea":"North Dist.","tot":"40","sbi":"14","bemp":"25","lat":"24.153274","lng":"120.689117","mday":"20150406195530","sv":"1"},"3030":{"sno":3030,"sna":"Taiyuan N. Rd./ Zhongqing Rd.","ar":"Taiyuan N. Rd & Sec. 1, Zhongqing Rd Intersection","sarea":"North Dist.","tot":"40","sbi":"16","bemp":"24","lat":"24.165115","lng":"120.673279","mday":"20150406195530","sv":"1"},"3031":{"sno":3031,"sna":"National Taichung University of Education","ar":"Wuquan Rd & Minquan Rd Intersection","sarea":"West Dist.","tot":"36","sbi":"28","bemp":"8","lat":"24.145214","lng":"120.671185","mday":"20150406195540","sv":"1"},"3032":{"sno":3032,"sna":"Xueshi Rd./ Yude Rd.","ar":"Xueshi Rd &Yude Rd Intersection","sarea":"North Dist.","tot":"56","sbi":"5","bemp":"50","lat":"24.157757","lng":"120.681155","mday":"20150406195535","sv":"1"},"3033":{"sno":3033,"sna":"Zhongshan Land Office","ar":"Sec. 1, Sanmin Rd & Ln. 156, Sec. 1, Sanmin Rd Intersection","sarea":"West Dist.","tot":"34","sbi":"4","bemp":"30","lat":"24.13654","lng":"120.673707","mday":"20150406195532","sv":"1"},"3034":{"sno":3034,"sna":"City Park","ar":"Zhongxing St & Gongyi Rd  Intersection","sarea":"West Dist.","tot":"64","sbi":"40","bemp":"24","lat":"24.150621","lng":"120.663045","mday":"20150406195535","sv":"1"},"3035":{"sno":3035,"sna":"National Museum of Natural Science（Guanqian Rd.）","ar":"No.101, Boguan Rd","sarea":"North Dist.","tot":"56","sbi":"20","bemp":"34","lat":"24.156199","lng":"120.665901","mday":"20150406195543","sv":"1"},"3037":{"sno":3037,"sna":"National Taiwan Museum of Fine Arts","ar":"Sec. 1, Wucyuan W. Rd &Sec. 1, Meicun Rd","sarea":"West Dist.","tot":"48","sbi":"18","bemp":"29","lat":"24.140682","lng":"120.661836","mday":"20150406195531","sv":"1"},"3038":{"sno":3038,"sna":"North District Administration Building","ar":"Yongxing St & Sec. 2, Taiyuan Rd Intersection","sarea":"North Dist.","tot":"48","sbi":"26","bemp":"21","lat":"24.166078","lng":"120.682416","mday":"20150406195535","sv":"1"},"3040":{"sno":3040,"sna":"Beitun Children's Park","ar":"Sec. 1, Xing’an Rd & Sec. 4, Beiping Rd Intersection","sarea":"Beitun Dist.","tot":"40","sbi":"22","bemp":"18","lat":"24.170187","lng":"120.694267","mday":"20150406195354","sv":"1"},"3041":{"sno":3041,"sna":"Li Sing Elementary School","ar":"Lixing Rd & Jinhua Rd Intersection","sarea":"East Dist.","tot":"50","sbi":"39","bemp":"11","lat":"24.151573","lng":"120.693931","mday":"20150406195519","sv":"1"},"3042":{"sno":3042,"sna":"Taichung First Senior High School","ar":"Yucai St & Zunxian St Intersection","sarea":"North Dist.","tot":"60","sbi":"3","bemp":"55","lat":"24.149175","lng":"120.686487","mday":"20150406195540","sv":"1"},"3043":{"sno":3043,"sna":"Chong Cheng Park","ar":"Zhongming Rd & Sec. 1, Huamei W. St Intersection","sarea":"West Dist.","tot":"50","sbi":"14","bemp":"36","lat":"24.161092","lng":"120.662753","mday":"20150406195530","sv":"1"},"3044":{"sno":3044,"sna":"Lai Ming Park","ar":"Sec. 3, Meichuan E. Rd & Sec. 4, Hankou Rd Intersection","sarea":"North Dist.","tot":"40","sbi":"7","bemp":"32","lat":"24.167109","lng":"120.678381","mday":"20150406195518","sv":"1"},"3045":{"sno":3045,"sna":"National Taichung Wen-Hua Senior High School","ar":"Sec. 3, Wenxin Rd & Sec. 1, Henan Rd Intersection","sarea":"Xitun Dist.","tot":"70","sbi":"26","bemp":"44","lat":"24.171233","lng":"120.660673","mday":"20150406195527","sv":"1"},"3047":{"sno":3047,"sna":"Taichung Station","ar":"Jianguo Rd & Zhongshan Rd Intersection","sarea":"Central Dist.","tot":"72","sbi":"18","bemp":"54","lat":"24.136704","lng":"120.683819","mday":"20150406195517","sv":"1"},"1001":{"sno":1001,"sna":"Dapeng Community","ar":"No. 3, Lane 700 Chung Cheng Road, Xindian District","sarea":"Xindian Dist.","tot":"38","sbi":"10","bemp":"28","lat":"24.99116","lng":"121.53398","mday":"20150406195529","sv":"1"},"1002":{"sno":1002,"sna":"Xizhi Railway Station","ar":"Nanchang St./Xinchang Rd.","sarea":"Xizhi Dist.","tot":"56","sbi":"1","bemp":"55","lat":"25.068914","lng":"121.662748","mday":"20150406195534","sv":"1"},"1003":{"sno":1003,"sna":"Xizhi Dist. Office","ar":"Sec. 1, Xintai 5th Rd./Ren’ai Rd.","sarea":"Xizhi Dist.","tot":"46","sbi":"27","bemp":"19","lat":"25.064162","lng":"121.658301","mday":"20150406195537","sv":"1"},"1004":{"sno":1004,"sna":"Cathay General Hospital","ar":"No78, Jiancheng Rd","sarea":"Xizhi Dist.","tot":"40","sbi":"8","bemp":"32","lat":"25.07315","lng":"121.662555","mday":"20150406195544","sv":"1"},"1005":{"sno":1005,"sna":"Yulon Park","ar":"","sarea":"Xindian Dist.","tot":"40","sbi":"5","bemp":"34","lat":"24.979649","lng":"121.546319","mday":"20150406195521","sv":"1"},"1006":{"sno":1006,"sna":"MRT Dapinglin Sta.","ar":"Bao'an St./Ln. 58,Bao'an St","sarea":"Xindian Dist.","tot":"32","sbi":"1","bemp":"31","lat":"24.983977","lng":"121.541721","mday":"20150406195345","sv":"1"},"1007":{"sno":1007,"sna":"Xike Railway Station(North)","ar":"Ln. 184,Sec. 2, Datong Rd./Ln. 202,Long’an Rd.","sarea":"Xizhi Dist.","tot":"34","sbi":"9","bemp":"25","lat":"25.064106","lng":"121.653019","mday":"20150406195530","sv":"1"},"1008":{"sno":1008,"sna":"Xinghua Park","ar":"Ln. 120, Sec. 1, Chongyang Rd./Ln. 2, Zhonghua Rd.","sarea":"Sanchong Dist.","tot":"40","sbi":"6","bemp":"34","lat":"25.060125","lng":"121.483101","mday":"20150406195527","sv":"1"},"1009":{"sno":1009,"sna":"San chong Civil Sports Center","ar":"Jimei St., Sanchong Dist./Ln. 184, Sec. 4, Chongxin Rd.","sarea":"Sanchong Dist.","tot":"68","sbi":"25","bemp":"41","lat":"25.054391","lng":"121.488489","mday":"20150406195540","sv":"1"},"1010":{"sno":1010,"sna":"MRT Sanchong Sta. (Exit 3)","ar":"Jieyun Rd./Ln. 37, Jieyun Rd.","sarea":"Sanchong Dist.","tot":"34","sbi":"1","bemp":"32","lat":"25.055883","lng":"121.484739","mday":"20150406195532","sv":"1"},"1011":{"sno":1011,"sna":"Zhangshu Elementary School","ar":"Zhangshu 2nd Rd./Ln. 141, Zhangshu 1st Rd.","sarea":"Xizhi Dist.","tot":"48","sbi":"17","bemp":"31","lat":"25.066688","lng":"121.640367","mday":"20150406195529","sv":"1"},"1012":{"sno":1012,"sna":"Jinlong Elementary School","ar":"Zhongxing Rd./Minzu 6th St.","sarea":"Xizhi Dist.","tot":"52","sbi":"6","bemp":"45","lat":"25.0688","lng":"121.628908","mday":"20150406195515","sv":"1"},"1013":{"sno":1013,"sna":"Pai Yun Primary School","ar":"No.90, Sec. 2, Minquan St.","sarea":"Xizhi Dist.","tot":"46","sbi":"4","bemp":"38","lat":"25.047578","lng":"121.618888","mday":"20150406195535","sv":"1"},"1014":{"sno":1014,"sna":"Yixing-Dongshi Civic Center","ar":"Dongshi St./Fangyuan St.","sarea":"Xizhi Dist.","tot":"52","sbi":"16","bemp":"35","lat":"25.039031","lng":"121.624333","mday":"20150406195540","sv":"1"},"1015":{"sno":1015,"sna":"@ougang Park","ar":"Ln. 57, Jian’an St./Jian’an St.","sarea":"Xinzhuang Dist.","tot":"40","sbi":"8","bemp":"32","lat":"25.025358","lng":"121.428348","mday":"20150406195519","sv":"1"},"1016":{"sno":1016,"sna":"Fuying Administration Center","ar":"No.17, Siwei Rd./No.20, Siwei Rd.","sarea":"Xinzhuang Dist.","tot":"42","sbi":"11","bemp":"31","lat":"25.0241250","lng":"121.423870","mday":"20150406195518","sv":"1"},"1017":{"sno":1017,"sna":"Xisheng Park","ar":"Xisheng St./Ln. 201, Xisheng St.","sarea":"Xinzhuang Dist.","tot":"36","sbi":"2","bemp":"33","lat":"25.017113","lng":"121.428048","mday":"20150406195528","sv":"1"},"1018":{"sno":1018,"sna":"MRT Qizhang Sta. (Exit 1)","ar":"Sec. 2, Beixin Rd./Ln. 97, Sec. 2, Beixin Rd.","sarea":"Xindian Dist.","tot":"42","sbi":"9","bemp":"31","lat":"24.974272","lng":"121.542779","mday":"20150406195525","sv":"1"},"1019":{"sno":1019,"sna":"Renai Square","ar":"No.139, Minquan Rd.","sarea":"Luzhou Dist.","tot":"50","sbi":"14","bemp":"36","lat":"25.090565","lng":"121.471621","mday":"20150406195540","sv":"1"},"1020":{"sno":1020,"sna":"Chong Yang Elementary School","ar":"Zhongzheng N. Rd./Ln. 175, Sanmin St.","sarea":"Sanchong Dist.","tot":"42","sbi":"5","bemp":"33","lat":"25.066245","lng":"121.484337","mday":"20150406195527","sv":"1"},"1021":{"sno":1021,"sna":"Mingzhi Junior High School","ar":"No.107, Zhongzheng N. Rd","sarea":"Sanchong Dist.","tot":"50","sbi":"10","bemp":"37","lat":"25.063396","lng":"121.488982","mday":"20150406195544","sv":"1"},"1022":{"sno":1022,"sna":"San-Chung Commercial and Industrial Vocational High School","ar":"Ln. 276, Zhongzheng N. Rd.","sarea":"Sanchong Dist.","tot":"64","sbi":"16","bemp":"45","lat":"25.068681","lng":"121.480705","mday":"20150406195520","sv":"1"},"1023":{"sno":1023,"sna":"MRT Xinzhuang Sta. (Exit 1)","ar":"Zhongzheng Rd./Sec. 1, Zhonghua Rd.","sarea":"Xinzhuang Dist.","tot":"60","sbi":"12","bemp":"47","lat":"25.036152","lng":"121.452069","mday":"20150406195541","sv":"1"},"1024":{"sno":1024,"sna":"Yuan Xing Square","ar":"Yuanxing Rd./Ln. 150, Zhongxing Rd.","sarea":"Xizhi Dist.","tot":"52","sbi":"11","bemp":"34","lat":"25.065178","lng":"121.633071","mday":"20150406195539","sv":"1"},"1025":{"sno":1025,"sna":"Wenhua-Baiyun Park","ar":"No.42 to No.68, Sec. 2, Shuiyuan Rd.","sarea":"Xizhi Dist.","tot":"76","sbi":"8","bemp":"67","lat":"25.056875","lng":"121.655207","mday":"20150406195517","sv":"1"},"1026":{"sno":1026,"sna":"Xiushan Elementary School","ar":"Gengsheng St./Zili Rd.","sarea":"Zhonghe Dist.","tot":"62","sbi":"17","bemp":"44","lat":"24.996151","lng":"121.521988","mday":"20150406195544","sv":"1"},"1027":{"sno":1027,"sna":"MRT Yongan Market Sta.","ar":"Zhong’an St./Ln. 378, Zhonghe Rd.","sarea":"Zhonghe Dist.","tot":"72","sbi":"9","bemp":"62","lat":"25.001013","lng":"121.511588","mday":"20150406195524","sv":"1"},"1028":{"sno":1028,"sna":"Fuhe Junior High School","ar":"Yongzhen Rd./Yongheng Rd.","sarea":"Yonghe Dist.","tot":"66","sbi":"20","bemp":"43","lat":"25.005952","lng":"121.520930","mday":"20150406195521","sv":"1"},"1029":{"sno":1029,"sna":"Renai Park","ar":"Ren’ai Rd./Baosheng Rd.","sarea":"Yonghe Dist.","tot":"60","sbi":"18","bemp":"42","lat":"25.009838","lng":"121.505825","mday":"20150406195529","sv":"1"},"1030":{"sno":1030,"sna":"Zhonghe Park","ar":"Anle Rd./Dehe Rd.","sarea":"Zhonghe Dist.","tot":"46","sbi":"6","bemp":"40","lat":"25.000726","lng":"121.514350","mday":"20150406195542","sv":"1"},"1031":{"sno":1031,"sna":"Jinlong Park","ar":"Aly. 2, Ln. 31, Huqian St./Ln. 31, Huqian St.","sarea":"Xizhi Dist.","tot":"52","sbi":"3","bemp":"45","lat":"25.069473","lng":"121.631525","mday":"20150406195532","sv":"1"},"1032":{"sno":1032,"sna":"Chong Yang Park","ar":"Ln. 221, Jixian Rd.","sarea":"Luzhou Dist.","tot":"50","sbi":"13","bemp":"37","lat":"25.085688","lng":"121.483618","mday":"20150406195542","sv":"1"},"1033":{"sno":1033,"sna":"MRT Sanmin Senior High School Sta. (Exit 1)","ar":"No.105, Sanmin Rd.","sarea":"Luzhou Dist.","tot":"78","sbi":"28","bemp":"48","lat":"25.085815","lng":"121.472722","mday":"20150406195521","sv":"1"},"1034":{"sno":1034,"sna":"Zhung Yuan Park","ar":"No.22, Changxing Rd.","sarea":"Luzhou Dist.","tot":"58","sbi":"10","bemp":"44","lat":"25.083316","lng":"121.463894","mday":"20150406195542","sv":"1"},"1035":{"sno":1035,"sna":"Danfeng Police Substation","ar":"Ln. 77, Shuangfeng Rd.(Danfeng Police Station)","sarea":"Xinzhuang Dist.","tot":"38","sbi":"0","bemp":"38","lat":"25.027694","lng":"121.414662","mday":"20150406195524","sv":"1"},"1036":{"sno":1036,"sna":"Little Kinmen Park","ar":"Jianxing St.","sarea":"Xindian Dist.","tot":"60","sbi":"10","bemp":"49","lat":"24.977227","lng":"121.538140","mday":"20150406195515","sv":"1"},"1037":{"sno":1037,"sna":"Zhongxing & Baoqiao Intersection　","ar":"No.1, Sec. 3, Zhongxing Rd.","sarea":"Xindian Dist.","tot":"52","sbi":"3","bemp":"45","lat":"24.976180","lng":"121.546870","mday":"20150406195537","sv":"1"},"1038":{"sno":1038,"sna":"Xinzhuang Baseball Court","ar":"No.75, Hexing St./No.23, Sec. 1, Fuxing Rd.","sarea":"Xinzhuang Dist.","tot":"38","sbi":"7","bemp":"30","lat":"25.041603","lng":"121.446053","mday":"20150406195537","sv":"1"},"1039":{"sno":1039,"sna":"Tinghsi Elementary School","ar":"No.133, Wenhua Rd.","sarea":"Yonghe Dist.","tot":"50","sbi":"6","bemp":"43","lat":"25.015811","lng":"121.511261","mday":"20150406195530","sv":"1"},"1040":{"sno":1040,"sna":"Yonghe Elementary School","ar":"No.390 to No.426, Zhongzheng Rd.(opposite)","sarea":"Yonghe Dist.","tot":"38","sbi":"15","bemp":"20","lat":"25.002272","lng":"121.517442","mday":"20150406195522","sv":"1"},"1041":{"sno":1041,"sna":"Xiu Lang Elementary School","ar":"No.15 to No.23, Minsheng Rd.(opposite)","sarea":"Yonghe Dist.","tot":"46","sbi":"19","bemp":"25","lat":"24.999392","lng":"121.522843","mday":"20150406195517","sv":"1"},"1042":{"sno":1042,"sna":"Taipei Tzu Chi Hospital","ar":"No.289, Jianguo Rd.","sarea":"Xindian Dist.","tot":"40","sbi":"11","bemp":"28","lat":"24.985872","lng":"121.536887","mday":"20150406195535","sv":"1"},"1043":{"sno":1043,"sna":"MRT Dingxi Sta. (Exit 1)","ar":"No.1, Zhongxing St.(opposite)","sarea":"Yonghe Dist.","tot":"36","sbi":"0","bemp":"32","lat":"25.012176","lng":"121.515271","mday":"20150406195544","sv":"1"},"1044":{"sno":1044,"sna":"Bao'an & Yongping Intersection","ar":"No.248 to No.250, Bao’an Rd.","sarea":"Yonghe Dist.","tot":"42","sbi":"18","bemp":"24","lat":"25.012691","lng":"121.506471","mday":"20150406195528","sv":"1"},"1045":{"sno":1045,"sna":"Our Lady of Providence Girls' High School","ar":"No.14 to No.18, Sanmin Rd.","sarea":"Xindian Dist.","tot":"36","sbi":"5","bemp":"30","lat":"24.972127","lng":"121.539554","mday":"20150406195531","sv":"1"},"1046":{"sno":1046,"sna":"Hsin Tien Senior High School","ar":"Ln. 159, Sanmin Rd./ No.108, Sanmin Rd.","sarea":"Xindian Dist.","tot":"42","sbi":"13","bemp":"27","lat":"24.974181","lng":"121.534209","mday":"20150406195539","sv":"1"},"1047":{"sno":1047,"sna":"Xinzhuang Culture and Arts Center","ar":"No.133, Zhongping Rd.","sarea":"Xinzhuang Dist.","tot":"48","sbi":"6","bemp":"41","lat":"25.047150","lng":"121.444453","mday":"20150406195542","sv":"1"},"1048":{"sno":1048,"sna":"Zhonghua & Zhongyuan Intersection","ar":"Zhongyuan Rd./Sec. 2, Zhonghua Rd","sarea":"Xinzhuang Dist.","tot":"58","sbi":"20","bemp":"36","lat":"25.054232","lng":"121.451752","mday":"20150406195540","sv":"1"},"1049":{"sno":1049,"sna":"New Taipei Senior High School","ar":"No.1, Sanxin Rd.","sarea":"Sanchong Dist.","tot":"60","sbi":"7","bemp":"51","lat":"25.087225","lng":"121.489525","mday":"20150406195533","sv":"1"},"1050":{"sno":1050,"sna":"Fushou Park","ar":"No.130 to No.140, Fushou St.","sarea":"Xinzhuang Dist.","tot":"36","sbi":"17","bemp":"19","lat":"25.051829","lng":"121.457746","mday":"20150406195541","sv":"1"},"1051":{"sno":1051,"sna":"Baochang Park","ar":"Baochang Rd./Ln. 45, Baochang Rd.","sarea":"Xizhi Dist.","tot":"28","sbi":"12","bemp":"16","lat":"25.079523","lng":"121.674342","mday":"20150406195524","sv":"1"},"1052":{"sno":1052,"sna":"Zhongyang Market","ar":"No.64, Zhongyang 4th St. (opposite)","sarea":"Xindian Dist.","tot":"36","sbi":"3","bemp":"33","lat":"24.975308","lng":"121.527287","mday":"20150406195526","sv":"1"},"1053":{"sno":1053,"sna":"Yong-Ping High School","ar":"Yongping Rd./Ln. 203, Yongping Rd.","sarea":"Yonghe Dist.","tot":"34","sbi":"1","bemp":"31","lat":"25.010163","lng":"121.509358","mday":"20150406195544","sv":"1"},"1054":{"sno":1054,"sna":"Huiguo Market","ar":"Ln. 75 to Ln. 95 , Zhongzheng Rd.","sarea":"Xindian Dist.","tot":"36","sbi":"3","bemp":"32","lat":"24.970415","lng":"121.543384","mday":"20150406195531","sv":"1"},"1055":{"sno":1055,"sna":"Sunshine Bridge","ar":"Xiyuan Rd./Zhongshan Rd.","sarea":"Xindian Dist.","tot":"40","sbi":"11","bemp":"29","lat":"24.978494","lng":"121.524176","mday":"20150406195537","sv":"1"},"1056":{"sno":1056,"sna":"Zhongxing & Baoqing Intersection","ar":"Sec. 3, Zhongxing Rd./Baoqing St.","sarea":"Xindian Dist.","tot":"50","sbi":"5","bemp":"44","lat":"24.986942","lng":"121.541950","mday":"20150406195540","sv":"1"},"1057":{"sno":1057,"sna":"Oriental Science Park","ar":"No.90 to No.116, Sec. 1, Xintai 5th Rd.","sarea":"Xizhi Dist.","tot":"52","sbi":"8","bemp":"44","lat":"25.061262","lng":"121.649512","mday":"20150406195541","sv":"1"},"1059":{"sno":1059,"sna":"Qingshan Elementary and Junior High School","ar":"No.33, Zhuangjing St.","sarea":"Xizhi Dist.","tot":"50","sbi":"6","bemp":"44","lat":"25.061034","lng":"121.655586","mday":"20150406195529","sv":"1"},"1060":{"sno":1060,"sna":"Xizhi Sports Field","ar":"Xike Rd./Xiufeng Rd.","sarea":"Xizhi Dist.","tot":"44","sbi":"15","bemp":"29","lat":"25.066238","lng":"121.659067","mday":"20150406195527","sv":"1"},"1061":{"sno":1061,"sna":"Xizhi Park","ar":"No.451, Sec. 2, Datong Rd.","sarea":"Xizhi Dist.","tot":"52","sbi":"9","bemp":"40","lat":"25.067682","lng":"121.659763","mday":"20150406195524","sv":"1"},"1062":{"sno":1062,"sna":"Baoshun & Huanhe W. Intersection","ar":"Baoshun & Huanhe W. Intersection","sarea":"Yonghe Dist.","tot":"58","sbi":"27","bemp":"31","lat":"25.010786","lng":"121.503376","mday":"20150406195525","sv":"1"},"1063":{"sno":1063,"sna":"Taiwan Science Park","ar":"No.237, Sec. 1, Datong Rd.","sarea":"Xizhi Dist.","tot":"40","sbi":"2","bemp":"37","lat":"25.057900","lng":"121.634899","mday":"20150406195515","sv":"1"},"1064":{"sno":1064,"sna":"Chung Cheng Elementary School","ar":"No. 36 to No.42-1, Sanmin Rd.","sarea":"Xindian Dist.","tot":"32","sbi":"6","bemp":"25","lat":"24.971496","lng":"121.536296","mday":"20150406195521","sv":"1"},"1065":{"sno":1065,"sna":"Kaiyuan Civic Activity Center","ar":"No.58, Kaiyuan St./Aly. 16, Ln. 65, Changyuan St. (opposite)","sarea":"Sanchong Dist.","tot":"42","sbi":"6","bemp":"35","lat":"25.066074","lng":"121.503557","mday":"20150406195529","sv":"1"},"1066":{"sno":1066,"sna":"Taipei Park","ar":"No.185, Nanyang St.","sarea":"Xizhi Dist.","tot":"44","sbi":"7","bemp":"37","lat":"25.058078","lng":"121.626018","mday":"20150406195517","sv":"1"},"1068":{"sno":1068,"sna":"Er Chung Junior High School","ar":"No.1, Ln. 75, Sec. 3, Zhongxiao Rd. to No.11, Ln. 75, Sec. 3, Zhongxiao Rd. (opposite)","sarea":"Sanchong Dist.","tot":"70","sbi":"19","bemp":"50","lat":"25.065957","lng":"121.480465","mday":"20150406195543","sv":"1"},"1070":{"sno":1070,"sna":"New Taipei City Library Sanchong Branch","ar":"No.162, Sec. 1, Ziqiang Rd. to No.4, Aly. 2, Sec. 1, Ziqiang Rd. (opposite)","sarea":"Sanchong Dist.","tot":"50","sbi":"6","bemp":"44","lat":"25.066099","lng":"121.495529","mday":"20150406195539","sv":"1"},"1071":{"sno":1071,"sna":"Sanzhang Park","ar":"No.127, Dazhi St. to No.137, Dazhi St. (opposite)","sarea":"Sanchong Dist.","tot":"40","sbi":"0","bemp":"38","lat":"25.070507","lng":"121.490935","mday":"20150406195533","sv":"1"},"1074":{"sno":1074,"sna":"Zhonggang Elementary School","ar":"No.62, Zhonghe St. (opposite)","sarea":"Xinzhuang Dist.","tot":"50","sbi":"27","bemp":"22","lat":"25.046418","lng":"121.447639","mday":"20150406195517","sv":"1"},"1076":{"sno":1076,"sna":"Zhengyi Park","ar":"No.101 to No. 119, Wenhua N. Rd. (opposite)","sarea":"Sanchong Dist.","tot":"52","sbi":"19","bemp":"32","lat":"25.068551","lng":"121.497818","mday":"20150406195536","sv":"1"},"1077":{"sno":1077,"sna":"MRT St.Ignatius High School Sta. (Exit 1)","ar":"No.3, Zhongshan 1st Rd.","sarea":"Luzhou Dist.","tot":"56","sbi":"6","bemp":"46","lat":"25.080468","lng":"121.479852","mday":"20150406195520","sv":"1"},"1078":{"sno":1078,"sna":"Huangcheng Park","ar":"No.74, Zhongxin St.","sarea":"Xinzhuang Dist.","tot":"38","sbi":"16","bemp":"20","lat":"25.052382","lng":"121.448239","mday":"20150406195522","sv":"1"},"1080":{"sno":1080,"sna":"MRT Sanhe Junior High School Sta.","ar":"No.95 to N0. 97, Sec. 4, Sanhe Rd. (opposite)","sarea":"Sanchong Dist.","tot":"48","sbi":"0","bemp":"48","lat":"25.075881","lng":"121.487795","mday":"20150406195521","sv":"1"},"1081":{"sno":1081,"sna":"Zhonghe Civil Sports Center","ar":"Sec. 1, Hecheng Rd./  Zhongzheng Second Bridge","sarea":"Zhonghe Dist.","tot":"50","sbi":"16","bemp":"32","lat":"24.993477","lng":"121.487692","mday":"20150406195533","sv":"1"},"1082":{"sno":1082,"sna":"Siwei Park","ar":"No.181, Siwei Rd. (opposite)","sarea":"Xinzhuang Dist.","tot":"40","sbi":"1","bemp":"39","lat":"25.021308","lng":"121.422185","mday":"20150406195534","sv":"1"},"1083":{"sno":1083,"sna":"Luzhou Civil Sports Center","ar":"Ln. 237, Changxing Rd./Changxing Rd.","sarea":"Luzhou Dist.","tot":"42","sbi":"16","bemp":"24","lat":"25.091945","lng":"121.461613","mday":"20150406195540","sv":"1"},"1084":{"sno":1084,"sna":"Helping Park","ar":"Zhongxiao Rd./Ln. 32, Sec. 2, Zhongxiao Rd.","sarea":"Sanchong Dist.","tot":"36","sbi":"16","bemp":"19","lat":"25.070884","lng":"121.485712","mday":"20150406195542","sv":"1"},"1085":{"sno":1085,"sna":"Sanchong Sports Center","ar":"No.1, Sec. 1, New Taipei Blvd.","sarea":"Sanchong Dist.","tot":"52","sbi":"15","bemp":"36","lat":"25.061446","lng":"121.491926","mday":"20150406195533","sv":"1"},"1086":{"sno":1086,"sna":"Xinyi Park","ar":"No.18, Xinyi W. St. (opposite)","sarea":"Sanchong Dist.","tot":"36","sbi":"28","bemp":"7","lat":"25.064804","lng":"121.498749","mday":"20150406195524","sv":"1"},"1088":{"sno":1088,"sna":"Xiu de Village (Chenggong Rd. Sec. 2)","ar":"No.28 to No.34, Sec. 2, Chenggong Rd.","sarea":"Yonghe Dist.","tot":"28","sbi":"6","bemp":"21","lat":"25.000705","lng":"121.526729","mday":"20150406195531","sv":"1"},"1089":{"sno":1089,"sna":"Yongping Park","ar":"Aly. 42, Ln. 38, Yongle St.","sarea":"Luzhou Dist.","tot":"44","sbi":"2","bemp":"41","lat":"25.089987","lng":"121.459424","mday":"20150406195544","sv":"1"},"1091":{"sno":1091,"sna":"Touqian Sports Park","ar":"No.165, Toucheng St. (opposite)","sarea":"Xinzhuang Dist.","tot":"50","sbi":"12","bemp":"37","lat":"25.052180","lng":"121.462124","mday":"20150406195538","sv":"1"},"1097":{"sno":1097,"sna":"Banqiao Civil Sports Center","ar":"Yingshi Rd./Jhihle Rd.","sarea":"Banqiao Dist.","tot":"44","sbi":"9","bemp":"34","lat":"25.022235","lng":"121.458152","mday":"20150406195531","sv":"1"},"1098":{"sno":1098,"sna":"Yongan Park","ar":"No.25, Sec. 1, Shuangshi Rd.","sarea":"Banqiao Dist.","tot":"38","sbi":"6","bemp":"32","lat":"25.024478","lng":"121.477572","mday":"20150406195537","sv":"1"},"1099":{"sno":1099,"sna":"MRT Jiangzicui Sta.(Exit 3)","ar":"Sec. 2, Wenhua Rd./Sec. 2, Shuangshi Rd.","sarea":"Banqiao Dist.","tot":"44","sbi":"9","bemp":"32","lat":"25.029729","lng":"121.472359","mday":"20150406195525","sv":"1"},"1100":{"sno":1100,"sna":"Yinyue Park","ar":"No.97, Datong St.","sarea":"Banqiao Dist.","tot":"48","sbi":"13","bemp":"34","lat":"25.028503","lng":"121.480363","mday":"20150406195515","sv":"1"},"1103":{"sno":1103,"sna":"MRT Xinpu Sta.(Exit.2)","ar":"No.318, Sec. 1, Wenhua Rd.","sarea":"Banqiao Dist.","tot":"22","sbi":"1","bemp":"20","lat":"25.022095","lng":"121.467598","mday":"20150406195543","sv":"1"},"1105":{"sno":1105,"sna":"MRT Banqiao Sta.(Exit.3)","ar":"No.117, Sec. 1, Wenhua Rd. (opposite)","sarea":"Banqiao Dist.","tot":"30","sbi":"1","bemp":"28","lat":"25.014797","lng":"121.462051","mday":"20150406195518","sv":"1"},"1106":{"sno":1106,"sna":"Minsheng Park","ar":"Sec. 1, Minsheng Rd./Ln. 30, Sec. 1, Minsheng Rd.","sarea":"Banqiao Dist.","tot":"42","sbi":"8","bemp":"32","lat":"25.013087","lng":"121.475894","mday":"20150406195333","sv":"1"},"1107":{"sno":1107,"sna":"New Taipei City Hall","ar":"No.1, Xinfu Rd. (opposite)","sarea":"Banqiao Dist.","tot":"40","sbi":"2","bemp":"38","lat":"25.012374","lng":"121.464224","mday":"20150406195526","sv":"1"}}